[
    {
        "place_id": "ChIJWRGRdqhh1JERxpHvB_y0hPo",
        "nombre": "Su Papeleria",
        "direccion": "Quijano y Ordoñez, Ecuador",
        "provincia": "Tungurahua",
        "lat": -0.9344408999999998,
        "lng": -78.61333309999999,
        "rating": 4.8,
        "website": null,
        "keyword_found": "librería"
    },
    {
        "place_id": "ChIJ59wtUu4H05ERs-Gjl57kHOs",
        "nombre": "Librería Exito",
        "direccion": "88VH+WV5, Riobamba, Ecuador",
        "provincia": "Tungurahua",
        "lat": -1.6552257,
        "lng": -78.67025579999999,
        "rating": 4.5,
        "website": null,
        "keyword_found": "librería"
    },
    {
        "place_id": "ChIJG4TQIi-o05ER0Qu2xp-g4Mw",
        "nombre": "Libreria Exito",
        "direccion": "Guayaquil 22-16 y, Riobamba, Ecuador",
        "provincia": "Tungurahua",
        "lat": -1.6737328,
        "lng": -78.64991719999999,
        "rating": 4.5,
        "website": null,
        "keyword_found": "librería"
    },
    {
        "place_id": "ChIJSe30sJOB05ERCwzOHTHLObs",
        "nombre": "Librería y papelería Ilusión",
        "direccion": "12_, Los Shyris & Av De Los Incas, Ambato 180202, Ecuador",
        "provincia": "Tungurahua",
        "lat": -1.2518324,
        "lng": -78.6304191,
        "rating": 4.6,
        "website": "https://www.libreriailusion.com/",
        "keyword_found": "librería"
    },
    {
        "place_id": "ChIJV49CodNh1JERUuTm5tP91_o",
        "nombre": "Libreria Infolibros",
        "direccion": "C. 2 de Mayo &, Latacunga 050102, Ecuador",
        "provincia": "Tungurahua",
        "lat": -0.9337532,
        "lng": -78.6170732,
        "rating": 5,
        "website": "https://www.facebook.com/motivacion.lectura.infantil/?ref=pages_you_manage",
        "keyword_found": "librería"
    },
    {
        "place_id": "ChIJtSPX4i6o05ERc-klFfa6Zx4",
        "nombre": "Librería Atlantida",
        "direccion": "89G2+68Q, Riobamba, Ecuador",
        "provincia": "Tungurahua",
        "lat": -1.6744159,
        "lng": -78.6491285,
        "rating": 4.3,
        "website": null,
        "keyword_found": "librería"
    },
    {
        "place_id": "ChIJz8o5KGOp05ERx0PAXfgpQzk",
        "nombre": "Librería Universitaria",
        "direccion": "GUAYAQUIL, Y, Riobamba 060110, Ecuador",
        "provincia": "Tungurahua",
        "lat": -1.680491,
        "lng": -78.6420651,
        "rating": 4.6,
        "website": "https://libreriauniversitaria.ec/",
        "keyword_found": "librería"
    },
    {
        "place_id": "ChIJOUyCD4Op05ERC_Jq2rkwEjY",
        "nombre": "Librería Riobamba",
        "direccion": "Guayaquil &, Riobamba, Ecuador",
        "provincia": "Tungurahua",
        "lat": -1.6777267,
        "lng": -78.64533809999999,
        "rating": 4.7,
        "website": null,
        "keyword_found": "librería"
    },
    {
        "place_id": "ChIJ1TfKQaOB05ERTX9A0T3U8y4",
        "nombre": "Libreria Pappel Book",
        "direccion": "Ambato 180201, Ecuador",
        "provincia": "Tungurahua",
        "lat": -1.2413014,
        "lng": -78.6216443,
        "rating": 4.4,
        "website": "https://www.facebook.com/pappel.book?ref=hl",
        "keyword_found": "librería"
    },
    {
        "place_id": "ChIJ6fRETcAH05ER27OQJWSGA10",
        "nombre": "Libreria y papeleria LA POLI",
        "direccion": "Av. Pedro Vicente Maldonado &, Riobamba, Ecuador",
        "provincia": "Tungurahua",
        "lat": -1.6602257,
        "lng": -78.6815926,
        "rating": 4.4,
        "website": null,
        "keyword_found": "librería"
    },
    {
        "place_id": "ChIJK1dcuP6p05ER8qHDj4Na-5A",
        "nombre": "libreria y papeleria Gama",
        "direccion": "JUAN MONTALVO ENTRE AVENIDA UNIDAD NACIONAL, Y, Riobamba 060111, Ecuador",
        "provincia": "Tungurahua",
        "lat": -1.6701077,
        "lng": -78.6544397,
        "rating": 4.1,
        "website": null,
        "keyword_found": "librería"
    },
    {
        "place_id": "ChIJmUFkJOqD05ERjBQgRDMk500",
        "nombre": "Distribuidora LIBRERÍA Papelería MULTISUMINISTROS",
        "direccion": "P9FC+M38, Av Atahualpa, Ambato 180103, Ecuador",
        "provincia": "Tungurahua",
        "lat": -1.2758432,
        "lng": -78.62978799999999,
        "rating": 4.4,
        "website": null,
        "keyword_found": "librería"
    },
    {
        "place_id": "ChIJIxwGL_B505ERSlmQIG3kCo4",
        "nombre": "Comercial Popular PLUS Librería Papelería Arte y Manualidades",
        "direccion": "Juan Montalvo y Quito esq Ambato, Santa Rosa, Ecuador",
        "provincia": "Tungurahua",
        "lat": -1.2813113,
        "lng": -78.66437959999999,
        "rating": 5,
        "website": null,
        "keyword_found": "librería"
    },
    {
        "place_id": "ChIJDZ3eA_6p05ERPdw-2w3igiw",
        "nombre": "Librería Bolivariana",
        "direccion": "Cristobal Colon 2406, Riobamba, Ecuador",
        "provincia": "Tungurahua",
        "lat": -1.6716976,
        "lng": -78.6488167,
        "rating": 4,
        "website": null,
        "keyword_found": "librería"
    },
    {
        "place_id": "ChIJkYt-i7yB05ERXPGZekgIf3I",
        "nombre": "Almacenes Rosendo Guaman Loc 2",
        "direccion": "Juan Benigno Vela 0324, Ambato 180109, Ecuador",
        "provincia": "Tungurahua",
        "lat": -1.2412422,
        "lng": -78.6253454,
        "rating": 4.5,
        "website": "http://www.rosendoguaman.com.ec/",
        "keyword_found": "librería"
    },
    {
        "place_id": "ChIJB2uHvUEH05ER6_0GdcTwW8M",
        "nombre": "TECNIBOOK",
        "direccion": "Av. Pedro Vicente Maldonado y Feliciano Checa, Riobamba 060106, Ecuador",
        "provincia": "Tungurahua",
        "lat": -1.6612786,
        "lng": -78.6778983,
        "rating": 4.6,
        "website": "https://www.facebook.com/Tecnibook-105339974852399/",
        "keyword_found": "librería"
    },
    {
        "place_id": "ChIJg2kPNOoH05ERp5Gk1MpHA_o",
        "nombre": "Libreria Juniors",
        "direccion": "88FR+4JW, Riobamba, Ecuador",
        "provincia": "Tungurahua",
        "lat": -1.6771301,
        "lng": -78.6584123,
        "rating": 4.2,
        "website": null,
        "keyword_found": "librería"
    },
    {
        "place_id": "ChIJZbKQt4aB05ERN6AP5K4dqoY",
        "nombre": "Libreria Arte Y Magia",
        "direccion": "P9QJ+XV3, Jose Garcia, Ambato 180205, Ecuador",
        "provincia": "Tungurahua",
        "lat": -1.2601102,
        "lng": -78.61781909999999,
        "rating": 5,
        "website": null,
        "keyword_found": "librería"
    },
    {
        "place_id": "ChIJI2YUmq8H05ERNEkMwFEFROw",
        "nombre": "Papelería Universitaria y Tecnología",
        "direccion": "Avenida La Prensa 1860 Y, Riobamba 060101, Ecuador",
        "provincia": "Tungurahua",
        "lat": -1.6649373,
        "lng": -78.6648745,
        "rating": 3.6,
        "website": null,
        "keyword_found": "librería"
    },
    {
        "place_id": "ChIJgXJ4YuAH05ERat1rju-j0zU",
        "nombre": "LA MEGA LIBRERIA 2",
        "direccion": "Pastaza, y, Riobamba, Ecuador",
        "provincia": "Tungurahua",
        "lat": -1.6422959,
        "lng": -78.6801206,
        "rating": 3,
        "website": null,
        "keyword_found": "librería"
    },
    {
        "place_id": "ChIJDVOiGC-o05ERWJhfmWvzUuo",
        "nombre": "Librería Ediciones Coquito y Manualidades Mundo Magico",
        "direccion": "Eugenio Espejo &, Riobamba, Ecuador",
        "provincia": "Tungurahua",
        "lat": -1.6736942,
        "lng": -78.649412,
        "rating": 4.8,
        "website": null,
        "keyword_found": "librería"
    },
    {
        "place_id": "ChIJHTLVG_B305ER0rnKapLld7w",
        "nombre": "Librería y Papelería Tisaleo",
        "direccion": "Parque central, frente a la Iglesia, M82J+H7H, Tisaleo 180950, Ecuador",
        "provincia": "Tungurahua",
        "lat": -1.3485596,
        "lng": -78.66928089999999,
        "rating": 3.7,
        "website": null,
        "keyword_found": "librería"
    },
    {
        "place_id": "ChIJC-ZSsLqB05ERGfeM2-CS16A",
        "nombre": "Libreria y papeleria Mi Sabiduria",
        "direccion": "Vargas Torres, Ambato, Ecuador",
        "provincia": "Tungurahua",
        "lat": -1.2361495,
        "lng": -78.62335519999999,
        "rating": 4.4,
        "website": null,
        "keyword_found": "librería"
    },
    {
        "place_id": "ChIJtc7esw-b0pERgOA7q6O6yQw",
        "nombre": "Librería y Bazar IDEAL",
        "direccion": "10 de agosto entre Alvarado, y, Riobamba 060103, Ecuador",
        "provincia": "Tungurahua",
        "lat": -1.6759957,
        "lng": -78.6461808,
        "rating": 4.7,
        "website": null,
        "keyword_found": "librería"
    },
    {
        "place_id": "ChIJua3M9LiB05ERoXlCjochH6E",
        "nombre": "Librería Fabricio",
        "direccion": "Av. Pichincha &, Ambato 180202, Ecuador",
        "provincia": "Tungurahua",
        "lat": -1.2535217,
        "lng": -78.6247082,
        "rating": 3,
        "website": null,
        "keyword_found": "librería"
    },
    {
        "place_id": "ChIJE8-LHe2B05ERqSA8BKDasKE",
        "nombre": "Viveres Y libreria \"ROSITA\"",
        "direccion": "PCR3+9H8, Ambato 180203, Ecuador",
        "provincia": "Tungurahua",
        "lat": -1.2590935,
        "lng": -78.59604089999999,
        "rating": 4.7,
        "website": null,
        "keyword_found": "librería"
    },
    {
        "place_id": "ChIJD093ROqF05ERTyffJr8LMqI",
        "nombre": "Librería y Papelería LORENS",
        "direccion": "Vicente Rocafuerte &, Pelileo, Ecuador",
        "provincia": "Tungurahua",
        "lat": -1.3296499,
        "lng": -78.5436691,
        "rating": 4.3,
        "website": null,
        "keyword_found": "librería"
    },
    {
        "place_id": "ChIJhz6hiM4H05ER3Vrq-kuYyX4",
        "nombre": "Mil Colores Multiservicios",
        "direccion": "Av Pedro Vicente Maldonado y, Avenue Monsenor Leonidas Proaño, Riobamba 060150, Ecuador",
        "provincia": "Tungurahua",
        "lat": -1.6557422,
        "lng": -78.695945,
        "rating": 4.6,
        "website": "https://linktr.ee/milcoloresriobamba",
        "keyword_found": "librería"
    },
    {
        "place_id": "ChIJ5xYpC3YH05ERmjb_xyySqY8",
        "nombre": "IMARK LIBRERIA",
        "direccion": "CARABOBO Y, ESQUINA DEL SEMAFORO, Av. 9 de Octubre, Riobamba, Ecuador",
        "provincia": "Tungurahua",
        "lat": -1.6768303,
        "lng": -78.6588391,
        "rating": 4.7,
        "website": null,
        "keyword_found": "librería"
    },
    {
        "place_id": "ChIJJbbO_62B05ERB62rqBJJGrg",
        "nombre": "El Amigo bazar y papelería",
        "direccion": "Q93C+RQX, Quito, Ambato 180101, Ecuador",
        "provincia": "Tungurahua",
        "lat": -1.2453919,
        "lng": -78.6280227,
        "rating": 5,
        "website": null,
        "keyword_found": "librería"
    },
    {
        "place_id": "ChIJIa724vqB05ERby4J2ac8BJc",
        "nombre": "LA LIBRERIA DE ALEX PAPELERIA - BAZAR",
        "direccion": "AV. Rodrigo Pachano, y, Ambato 180150, Ecuador",
        "provincia": "Tungurahua",
        "lat": -1.2264619,
        "lng": -78.60155739999999,
        "rating": 4,
        "website": null,
        "keyword_found": "librería"
    },
    {
        "place_id": "ChIJ-7LI-oSR05ERj1tDshqSxao",
        "nombre": "LIBRERIA CENTRAL",
        "direccion": "180301, Baños de Agua Santa 180301, Ecuador",
        "provincia": "Tungurahua",
        "lat": -1.3974584,
        "lng": -78.4257374,
        "rating": 4,
        "website": null,
        "keyword_found": "librería"
    },
    {
        "place_id": "ChIJU3N7hgup05ERV4d29VWnQ1s",
        "nombre": "Librería Fantasis Blu",
        "direccion": "Av. Gonzalo Dávalos 3833, Riobamba, Ecuador",
        "provincia": "Tungurahua",
        "lat": -1.6611173,
        "lng": -78.6561304,
        "rating": 5,
        "website": null,
        "keyword_found": "librería"
    },
    {
        "place_id": "ChIJSV8cGmh_1JERGTFzLuJ8IWY",
        "nombre": "Danna & Dennise Libreria",
        "direccion": "Ambato, Ecuador",
        "provincia": "Tungurahua",
        "lat": -1.1770723,
        "lng": -78.58934719999999,
        "rating": 4.6,
        "website": null,
        "keyword_found": "librería"
    },
    {
        "place_id": "ChIJU9QlWWyC05ERuFZuPMRbzIU",
        "nombre": "Librería Garabatos en Papel",
        "direccion": "P975+W83, Ambato 180103, Ecuador",
        "provincia": "Tungurahua",
        "lat": -1.285229,
        "lng": -78.64169989999999,
        "rating": 4,
        "website": null,
        "keyword_found": "librería"
    },
    {
        "place_id": "ChIJs1uoedYH05EROx3B6UXvhgo",
        "nombre": "Papeleria Masita",
        "direccion": "983P+M76, Pedro Fermin Cevallos, Riobamba, Ecuador",
        "provincia": "Tungurahua",
        "lat": -1.6458329,
        "lng": -78.6643619,
        "rating": 4.5,
        "website": null,
        "keyword_found": "librería"
    },
    {
        "place_id": "ChIJj1jrNOKp05ERsx_9XM_Gd6s",
        "nombre": "Librería Millenium Riobamba - Útiles Escolares",
        "direccion": "Boyacá, y, Riobamba 060104, Ecuador",
        "provincia": "Tungurahua",
        "lat": -1.6744739,
        "lng": -78.65598100000001,
        "rating": 5,
        "website": null,
        "keyword_found": "librería"
    },
    {
        "place_id": "ChIJ1-vhuhip05ERbWqBDmAsCFc",
        "nombre": "Libreria Tecnica",
        "direccion": "España 23-45 y, Riobamba 060102, Ecuador",
        "provincia": "Tungurahua",
        "lat": -1.6708521,
        "lng": -78.6502697,
        "rating": 3.9,
        "website": null,
        "keyword_found": "librería"
    },
    {
        "place_id": "ChIJg3JMm_Cp05ERFZhNguuY1_A",
        "nombre": "MÁXIMA ESCALA",
        "direccion": "060108, Riobamba 060108, Ecuador",
        "provincia": "Tungurahua",
        "lat": -1.6550252,
        "lng": -78.6431648,
        "rating": 5,
        "website": null,
        "keyword_found": "librería"
    },
    {
        "place_id": "ChIJHYpGiAoH05ERlxCjrcDJzCk",
        "nombre": "Librería y Papelería Dadito",
        "direccion": "Av Monseñor Leonidas Proaño, y, Riobamba, Ecuador",
        "provincia": "Tungurahua",
        "lat": -1.6502773,
        "lng": -78.69056619999999,
        "rating": 5,
        "website": null,
        "keyword_found": "librería"
    },
    {
        "place_id": "ChIJY_6jag2B05ERhqjJBUhPnrU",
        "nombre": "Bazar y Librería JLM",
        "direccion": "Himno Nacional &, Ambato 180101, Ecuador",
        "provincia": "Tungurahua",
        "lat": -1.2281666,
        "lng": -78.62507409999999,
        "rating": 5,
        "website": null,
        "keyword_found": "librería"
    },
    {
        "place_id": "ChIJ6X1gpZfv1JERHQ2BJkAW-A4",
        "nombre": "Imagina Bazar y Papelería",
        "direccion": "Sigchos, Chucchilán 050504, Ecuador",
        "provincia": "Tungurahua",
        "lat": -0.7995234,
        "lng": -78.9202389,
        "rating": 5,
        "website": null,
        "keyword_found": "librería"
    },
    {
        "place_id": "ChIJx-IZ8T2p05ERlZARhQ1L8ok",
        "nombre": "Libreria & Papeleria IMC",
        "direccion": "Av. Antonio José de Sucre, Riobamba 060108, Ecuador",
        "provincia": "Tungurahua",
        "lat": -1.6576178,
        "lng": -78.64562520000001,
        "rating": 1.7,
        "website": null,
        "keyword_found": "librería"
    },
    {
        "place_id": "ChIJycnT_P191JERt911D7x6eNA",
        "nombre": "Basart y Papeleria Albita",
        "direccion": "XC46+5W4, Salcedo, Ecuador",
        "provincia": "Tungurahua",
        "lat": -1.0446025,
        "lng": -78.58767999999999,
        "rating": 5,
        "website": null,
        "keyword_found": "librería"
    },
    {
        "place_id": "ChIJTepzNCqB05ERlCTdN95ezdk",
        "nombre": "Libreria y Papeleria Copiarte Ambato",
        "direccion": "Av. Pedro Vásconez, Ambato 180156, Ecuador",
        "provincia": "Tungurahua",
        "lat": -1.2260577,
        "lng": -78.58628259999999,
        "rating": 3.7,
        "website": "https://www.facebook.com/CopiarteAmbato",
        "keyword_found": "librería"
    },
    {
        "place_id": "ChIJsUjkZR-D05ERqsVBkFDpFtM",
        "nombre": "La Papelería",
        "direccion": "Calle Rio Guayabamba c7 Y, Av. los chásquis, Ambato 180103, Ecuador",
        "provincia": "Tungurahua",
        "lat": -1.265376,
        "lng": -78.6255566,
        "rating": 4.8,
        "website": null,
        "keyword_found": "librería"
    },
    {
        "place_id": "ChIJf1Qsxx6B05ERpeUYkg56PqM",
        "nombre": "Banco del Barrio Guayaquil",
        "direccion": "Av. los chásquis 08-29, Ambato 180202, Ecuador",
        "provincia": "Tungurahua",
        "lat": -1.2519606,
        "lng": -78.62235249999999,
        "rating": 4.7,
        "website": null,
        "keyword_found": "librería"
    },
    {
        "place_id": "ChIJ7cmjVDMH05ERKVWxsbiLhyw",
        "nombre": "kakabate variedades",
        "direccion": "Riobamba, Ecuador",
        "provincia": "Tungurahua",
        "lat": -1.6551526,
        "lng": -78.6634091,
        "rating": 5,
        "website": null,
        "keyword_found": "librería"
    },
    {
        "place_id": "ChIJs3el9Eqp05ERNhNVYgS8S6I",
        "nombre": "Librería Visión",
        "direccion": "La dolorosa, Riobamba 060110, Ecuador",
        "provincia": "Tungurahua",
        "lat": -1.6797479,
        "lng": -78.642676,
        "rating": null,
        "website": null,
        "keyword_found": "librería"
    },
    {
        "place_id": "ChIJ2SnjYU-B05ERydH_FMuhrNo",
        "nombre": "Librería Papelería Pencil House",
        "direccion": "Ambato 180213, Ecuador",
        "provincia": "Tungurahua",
        "lat": -1.2430118,
        "lng": -78.6269961,
        "rating": 5,
        "website": "https://www.instagram.com/_pencil.house_/",
        "keyword_found": "librería"
    },
    {
        "place_id": "ChIJeyE6ra-d05ERtxUka-Emin8",
        "nombre": "Librería Danielito",
        "direccion": "22 y, Av Vicente Rocafuerte & Jose Maria Velasco Ibarra, Ecuador",
        "provincia": "Tungurahua",
        "lat": -1.3848402,
        "lng": -78.6199683,
        "rating": 4,
        "website": null,
        "keyword_found": "librería"
    },
    {
        "place_id": "ChIJR3Xg-bip05ERDw8rB7HsJgI",
        "nombre": "Bazar y manualidades KOKY",
        "direccion": "Trujillo, Riobamba, Ecuador",
        "provincia": "Tungurahua",
        "lat": -1.66607,
        "lng": -78.6358867,
        "rating": 4.5,
        "website": null,
        "keyword_found": "librería"
    },
    {
        "place_id": "ChIJ945uqwup05ERUmbABT4T-gk",
        "nombre": "Killka Wasi",
        "direccion": "Cristobal Colon 1958y, Riobamba 060101, Ecuador",
        "provincia": "Tungurahua",
        "lat": -1.6741552,
        "lng": -78.6507871,
        "rating": 5,
        "website": null,
        "keyword_found": "librería"
    },
    {
        "place_id": "ChIJ3XUzToWp05ER0ZNarj5kR18",
        "nombre": "Libreria Politecnica",
        "direccion": "Roma, y, Riobamba 060110, Ecuador",
        "provincia": "Tungurahua",
        "lat": -1.6851405,
        "lng": -78.6389032,
        "rating": 5,
        "website": "https://m.facebook.com/librerialapolitecnica",
        "keyword_found": "librería"
    },
    {
        "place_id": "ChIJ1ysQhBCo05ER7HmjM_x2SuE",
        "nombre": "Comisariato del Estudiante",
        "direccion": "Av. Antonio José de Sucre, Riobamba 060108, Ecuador",
        "provincia": "Tungurahua",
        "lat": -1.6592657,
        "lng": -78.64683149999999,
        "rating": 4.6,
        "website": "https://www.facebook.com/comies.rio/",
        "keyword_found": "librería"
    },
    {
        "place_id": "ChIJQ7hBZu-D05ERNzj_oWCOBoU",
        "nombre": "Librería y Papelería \"American Salasaka\"",
        "direccion": "Salasaka - Centro, Salasaca 180406, Ecuador",
        "provincia": "Tungurahua",
        "lat": -1.3206617,
        "lng": -78.5784896,
        "rating": 5,
        "website": "https://www.facebook.com/profile.php?id=100089877874459&sk=about",
        "keyword_found": "librería"
    },
    {
        "place_id": "ChIJL7cNDgCp05ER_0folYO1orE",
        "nombre": "Librería 2B",
        "direccion": "Av Eloy Alfaro &, Riobamba, Ecuador",
        "provincia": "Tungurahua",
        "lat": -1.6804672,
        "lng": -78.6422599,
        "rating": null,
        "website": null,
        "keyword_found": "librería"
    },
    {
        "place_id": "ChIJMW2Bv6OB05ERbRZl_ZXxKd4",
        "nombre": "Librería y Papelería \"DYLAN\"",
        "direccion": "Ambato 180110, Ecuador",
        "provincia": "Tungurahua",
        "lat": -1.2267719,
        "lng": -78.59285160000002,
        "rating": 5,
        "website": null,
        "keyword_found": "librería"
    },
    {
        "place_id": "ChIJWfEckxH11JER3R-PCIsVI7Q",
        "nombre": "LICORERÍA DON HUGUITO",
        "direccion": "586J+HJC, Saquisilí, Ecuador",
        "provincia": "Tungurahua",
        "lat": -0.8385663999999999,
        "lng": -78.66848,
        "rating": 5,
        "website": null,
        "keyword_found": "librería"
    },
    {
        "place_id": "ChIJS595K6OD05ERNCnXu4URZwk",
        "nombre": "LIBROS MEDICOS ECUADOR",
        "direccion": "gregorio escobedo, y, Ambato 180206, Ecuador",
        "provincia": "Tungurahua",
        "lat": -1.2688384,
        "lng": -78.6218025,
        "rating": 4.8,
        "website": "https://www.instagram.com/librosmedicosec?igsh=OXB0NGk4cXB0dW5s&utm_source=qr",
        "keyword_found": "librería"
    },
    {
        "place_id": "ChIJNRnugSKo05ERmNx0xY7Al1k",
        "nombre": "Libreria Q Buena Nota",
        "direccion": "Juan Montalvo, Riobamba, Ecuador",
        "provincia": "Tungurahua",
        "lat": -1.6619428,
        "lng": -78.6478153,
        "rating": 4.4,
        "website": null,
        "keyword_found": "librerias"
    },
    {
        "place_id": "ChIJLwagwadh1JERrdBwueGY2hc",
        "nombre": "MEGAPOPULAR",
        "direccion": "C. Manuel de Jesús Quijano y Ordoñes &, 050101, Ecuador",
        "provincia": "Tungurahua",
        "lat": -0.9355779000000001,
        "lng": -78.6130824,
        "rating": 4.4,
        "website": "http://www.megapopular.com.ec/",
        "keyword_found": "librerias"
    },
    {
        "place_id": "ChIJe0DvHDOo05ERyG6mWfdcPfc",
        "nombre": "Libreria Ciencia y Técnica",
        "direccion": "89C5+426, Riobamba, Ecuador",
        "provincia": "Tungurahua",
        "lat": -1.6797035,
        "lng": -78.64248359999999,
        "rating": 4.8,
        "website": null,
        "keyword_found": "librerias"
    },
    {
        "place_id": "ChIJm2aX8DOB05ERhW72iUqSTP0",
        "nombre": "BIBLIOTECA DIGITAL DE EDUCACION FISICA",
        "direccion": "Ambato 180202, Ecuador",
        "provincia": "Tungurahua",
        "lat": -1.2522417,
        "lng": -78.62727269999999,
        "rating": 5,
        "website": null,
        "keyword_found": "librerias"
    },
    {
        "place_id": "ChIJwYhnF-eB05ERLRcKp3hrlB4",
        "nombre": "LIBRERIA ALFA Y OMEGA",
        "direccion": "593 593, Ambato 180202, Ecuador",
        "provincia": "Tungurahua",
        "lat": -1.251514,
        "lng": -78.6255134,
        "rating": null,
        "website": null,
        "keyword_found": "librerias"
    },
    {
        "place_id": "ChIJ-VifUsip05ERYIpFVnhhabo",
        "nombre": "Librería Stelasur Riobamba",
        "direccion": "Eugenio Espejo 2959, Riobamba, Ecuador",
        "provincia": "Tungurahua",
        "lat": -1.6688211,
        "lng": -78.64564229999999,
        "rating": null,
        "website": null,
        "keyword_found": "librerias"
    },
    {
        "place_id": "ChIJ5-zOLF2B05ERMIQ0zeIFi7Q",
        "nombre": "Libreria EL Compas Ambato",
        "direccion": "C. Joaquin Lalama 6-25 y, Ambato 180109, Ecuador",
        "provincia": "Tungurahua",
        "lat": -1.2401352,
        "lng": -78.627275,
        "rating": null,
        "website": null,
        "keyword_found": "librerias"
    },
    {
        "place_id": "ChIJrdt5iUVh1JERXY6boCG7YzE",
        "nombre": "PAPELERIA Y BAZAR EL BUEN ESTUDIANTE",
        "direccion": "397C+MRG BARRIO LOMA GRANDE, C. 10 de Agosto, Latacunga, Ecuador",
        "provincia": "Tungurahua",
        "lat": -0.9358228000000001,
        "lng": -78.6279362,
        "rating": null,
        "website": null,
        "keyword_found": "librerias"
    },
    {
        "place_id": "ChIJq4r7qmph1JERNsi5xUfeCjY",
        "nombre": "Bibliomashca",
        "direccion": "C. Luis Fernando Vivero &, Ecuador",
        "provincia": "Tungurahua",
        "lat": -0.9323366999999999,
        "lng": -78.6136039,
        "rating": 4.9,
        "website": null,
        "keyword_found": "librerias"
    },
    {
        "place_id": "ChIJkWdBrZGp05EREtXNFur2guY",
        "nombre": "La Casa del Libro",
        "direccion": "Cristobal Colon 1928, Riobamba, Ecuador",
        "provincia": "Tungurahua",
        "lat": -1.6742943,
        "lng": -78.6509547,
        "rating": null,
        "website": null,
        "keyword_found": "librerias"
    },
    {
        "place_id": "ChIJz6dBftKB05ERt8RyFctsV5s",
        "nombre": "LIBRERIAS SARAHI/SABIECITO",
        "direccion": "Vargas Torres entre Primera Imprenta, y, Ambato 180150, Ecuador",
        "provincia": "Tungurahua",
        "lat": -1.2368681,
        "lng": -78.6231135,
        "rating": 3,
        "website": null,
        "keyword_found": "librerias"
    },
    {
        "place_id": "ChIJbyHvRQOF05ERPjfwibP1rqY",
        "nombre": "Super Su Librería",
        "direccion": "Ricaurte y, Jose Mejia, Pelileo 180402, Ecuador",
        "provincia": "Tungurahua",
        "lat": -1.3302238,
        "lng": -78.5409646,
        "rating": null,
        "website": null,
        "keyword_found": "librerias"
    },
    {
        "place_id": "ChIJPXliD6Vh1JERfoFpBsj7uLQ",
        "nombre": "La Rebaja",
        "direccion": "C. 2 de Mayo, Latacunga 050101, Ecuador",
        "provincia": "Tungurahua",
        "lat": -0.9314830000000001,
        "lng": -78.6176172,
        "rating": 5,
        "website": "http://larebaja.ec/",
        "keyword_found": "librerias"
    },
    {
        "place_id": "ChIJ5Vcb-G8H05ERm35daiMYrLI",
        "nombre": "LIBRERIA BONY",
        "direccion": "060104, Riobamba 060104, Ecuador",
        "provincia": "Tungurahua",
        "lat": -1.6744258,
        "lng": -78.6580204,
        "rating": null,
        "website": null,
        "keyword_found": "librerias"
    },
    {
        "place_id": "ChIJ6ftVuY951JERaU2wKGH9ai8",
        "nombre": "LIBRERIA SU ECONOMIA",
        "direccion": "Rodríguez de Guzmán 092 y, Píllaro 180501, Ecuador",
        "provincia": "Tungurahua",
        "lat": -1.1717461,
        "lng": -78.5440512,
        "rating": null,
        "website": null,
        "keyword_found": "librerias"
    },
    {
        "place_id": "ChIJTSNfbZV41JER3UXRXLrnUW4",
        "nombre": "Librería \"Bolívar\"",
        "direccion": "RFH5+J5H, Pillaro, Ecuador",
        "provincia": "Tungurahua",
        "lat": -1.1709462,
        "lng": -78.5420164,
        "rating": 5,
        "website": null,
        "keyword_found": "librerias"
    },
    {
        "place_id": "ChIJlVg7_ahh1JERZUkLW6T4bFs",
        "nombre": "Imprenta Industria Gráfica",
        "direccion": "C. Fernando Sánchez de Orellana, Ecuador",
        "provincia": "Tungurahua",
        "lat": -0.9324047,
        "lng": -78.6149605,
        "rating": 4,
        "website": null,
        "keyword_found": "librerias"
    },
    {
        "place_id": "ChIJn3Jh9jmp05ERo31FcA4nHNo",
        "nombre": "Libreria Chimborazo",
        "direccion": "Av. Eloy Alfaro, y, Riobamba 060150, Ecuador",
        "provincia": "Tungurahua",
        "lat": -1.6791924,
        "lng": -78.6409656,
        "rating": 4.6,
        "website": "http://www.libreriachimborazo.com/",
        "keyword_found": "librerias"
    },
    {
        "place_id": "ChIJ4StgchuB05ERXlmD3wa6sPk",
        "nombre": "MULTICOMERCIO Y.S.",
        "direccion": "Ambato 180202, Ecuador",
        "provincia": "Tungurahua",
        "lat": -1.2536426,
        "lng": -78.63033469999999,
        "rating": null,
        "website": null,
        "keyword_found": "librerias"
    },
    {
        "place_id": "ChIJLYBCE66p05ER_L7N-z3wkGw",
        "nombre": "Librería GEOMUNDO",
        "direccion": "10 de agosto, y, Riobamba 060104, Ecuador",
        "provincia": "Tungurahua",
        "lat": -1.6699422,
        "lng": -78.65314169999999,
        "rating": 4.8,
        "website": null,
        "keyword_found": "librerias"
    },
    {
        "place_id": "ChIJ9-6WTKeB05EROGWsubQd6Ro",
        "nombre": "Libreria LNS Ambato",
        "direccion": "Darque, y, Ambato, Ecuador",
        "provincia": "Tungurahua",
        "lat": -1.2367781,
        "lng": -78.62344000000002,
        "rating": 4.2,
        "website": "https://m.facebook.com/LibreriaLNSAmbato/",
        "keyword_found": "librerias"
    },
    {
        "place_id": "ChIJe03R2OQH05ERTyhIrrdr7tU",
        "nombre": "Los Andes Internet Libreria",
        "direccion": "88XJ+R8V, y, Riobamba 060150, Ecuador",
        "provincia": "Tungurahua",
        "lat": -1.6503783,
        "lng": -78.6692036,
        "rating": 3.5,
        "website": null,
        "keyword_found": "libreria"
    },
    {
        "place_id": "ChIJcxZo0voO05ERYWZ31H2Vp0s",
        "nombre": "Libreria Santa Teresita",
        "direccion": "Guabug, San Juan, Riobamba, Ecuador",
        "provincia": "Tungurahua",
        "lat": -1.5983215,
        "lng": -78.7815054,
        "rating": 3.4,
        "website": "https://libreriasantatere.wixsite.com/santateresita",
        "keyword_found": "libreria"
    },
    {
        "place_id": "ChIJq2Rb9L141JER41VZA4RhCic",
        "nombre": "LIBRERIA EL BOTONCITO",
        "direccion": "Pillaro, Ecuador",
        "provincia": "Tungurahua",
        "lat": -1.1741541,
        "lng": -78.5425367,
        "rating": 4.9,
        "website": null,
        "keyword_found": "libreria"
    },
    {
        "place_id": "ChIJ_1dnMYcH05ERouvPc5NAoqQ",
        "nombre": "BAZAR LIBRERIA \"ANTONIS \"",
        "direccion": "88FR+CFQ, Ave Atahualpa, Riobamba, Ecuador",
        "provincia": "Tungurahua",
        "lat": -1.6764029,
        "lng": -78.65875559999999,
        "rating": 4.4,
        "website": null,
        "keyword_found": "libreria"
    },
    {
        "place_id": "ChIJFRyFS3CD05ERDlJEWmldzY0",
        "nombre": "Libreria y papelería SKS",
        "direccion": "Paredes herrera, y, Ambato 180103, Ecuador",
        "provincia": "Tungurahua",
        "lat": -1.2799373,
        "lng": -78.6261074,
        "rating": 5,
        "website": null,
        "keyword_found": "libreria"
    },
    {
        "place_id": "ChIJ7bhqUdqVrYMRafDbXZddwow",
        "nombre": "Librería y Papelería Pucará",
        "direccion": "Puerto Principe, Riobamba 060110, Ecuador",
        "provincia": "Tungurahua",
        "lat": -1.679631,
        "lng": -78.6366998,
        "rating": null,
        "website": null,
        "keyword_found": "libreria"
    },
    {
        "place_id": "ChIJn0ioUNmB05ERbuO3RUt0hsk",
        "nombre": "Librería Sebastián",
        "direccion": "Av. Pedro Vásconez &, Ecuador",
        "provincia": "Tungurahua",
        "lat": -1.226265,
        "lng": -78.5967443,
        "rating": null,
        "website": null,
        "keyword_found": "libreria"
    },
    {
        "place_id": "ChIJW-pUAgCZ05ERs7vCYhLf3uA",
        "nombre": "LIBRERIA Y PAPELERIA CARLITOS",
        "direccion": "HF8P+VHX, Ecuador",
        "provincia": "Tungurahua",
        "lat": -1.4327712,
        "lng": -78.5135032,
        "rating": null,
        "website": null,
        "keyword_found": "libreria"
    },
    {
        "place_id": "ChIJhf-0pwUH05ER1KxwEWU7AX4",
        "nombre": "LIBRERÍA SESQUI",
        "direccion": "060104, Riobamba 060118, Ecuador",
        "provincia": "Tungurahua",
        "lat": -1.6566851,
        "lng": -78.6693957,
        "rating": null,
        "website": null,
        "keyword_found": "libreria"
    },
    {
        "place_id": "ChIJVzdkMFan05ERH_UtPj351MM",
        "nombre": "Libreria D & S",
        "direccion": "Avenida Tomas Ramirez, y, Guano 060501, Ecuador",
        "provincia": "Tungurahua",
        "lat": -1.6031304,
        "lng": -78.6427776,
        "rating": null,
        "website": null,
        "keyword_found": "libreria"
    },
    {
        "place_id": "ChIJt7dXNnup05ER_gE0ol-_Tg0",
        "nombre": "Su Librería y Gráficas Basantes",
        "direccion": "Primera Constituyente 2955, Riobamba 060104, Ecuador",
        "provincia": "Tungurahua",
        "lat": -1.6689826,
        "lng": -78.65325469999999,
        "rating": 4,
        "website": null,
        "keyword_found": "libreria"
    },
    {
        "place_id": "ChIJ9ap65LuB05ER9Lf2Snk2mVU",
        "nombre": "Libromanía",
        "direccion": "y &, Ambato 180109, Ecuador",
        "provincia": "Tungurahua",
        "lat": -1.2394466,
        "lng": -78.6282159,
        "rating": 4.9,
        "website": null,
        "keyword_found": "venta de libros"
    },
    {
        "place_id": "ChIJXY5tob6B05EREZRs3uYnq94",
        "nombre": "Librería San Pablo",
        "direccion": "entre bolivar y, C. Vicente Rocafuerte, Ambato 180101, Ecuador",
        "provincia": "Tungurahua",
        "lat": -1.2410561,
        "lng": -78.6287395,
        "rating": 4.2,
        "website": "http://www.sanpablo.ec/",
        "keyword_found": "venta de libros"
    },
    {
        "place_id": "ChIJf_hnhrBh1JER3xAb7zbrCGk",
        "nombre": "Imprenta Mena & Jiménez",
        "direccion": "y Putumayo, C. Río Pita, Latacunga, Ecuador",
        "provincia": "Tungurahua",
        "lat": -0.9360573,
        "lng": -78.6231305,
        "rating": 3,
        "website": null,
        "keyword_found": "venta de libros"
    },
    {
        "place_id": "ChIJaeCenGyB05ERCy-u0RyX4PE",
        "nombre": "PUNTO DE VENTA SANTILLANA INGAHURCO",
        "direccion": "El Salvador 148, Ambato 180104, Ecuador",
        "provincia": "Tungurahua",
        "lat": -1.2333847,
        "lng": -78.61431549999999,
        "rating": 3,
        "website": null,
        "keyword_found": "venta de libros"
    },
    {
        "place_id": "ChIJI_iqZweB05ERfBYL0TG8VxQ",
        "nombre": "MyS Ediciones",
        "direccion": "Juan Montalvo 565, Ambato 180201, Ecuador",
        "provincia": "Tungurahua",
        "lat": -1.242612,
        "lng": -78.62826319999999,
        "rating": 3.5,
        "website": "https://www.facebook.com/mysedicioness",
        "keyword_found": "venta de libros"
    },
    {
        "place_id": "ChIJVVVVVYWB05ERQvHPsVOb94U",
        "nombre": "Literatura maya",
        "direccion": "P9WG+7VC, Av. los chásquis, Ambato 180202, Ecuador",
        "provincia": "Tungurahua",
        "lat": -1.2543239,
        "lng": -78.62285399999999,
        "rating": null,
        "website": null,
        "keyword_found": "venta de libros"
    },
    {
        "place_id": "ChIJVd-QSieC05ER2BYQJiFuOac",
        "nombre": "Megamaxi Mall de los Andes",
        "direccion": "AV. VICTOR HUGO S/N, Ambato 180201, Ecuador",
        "provincia": "Tungurahua",
        "lat": -1.2652797,
        "lng": -78.6281705,
        "rating": 4.6,
        "website": "https://www.megamaxi.com/",
        "keyword_found": "venta de libros"
    },
    {
        "place_id": "ChIJr9wRuCao05ERZGfJaGzt7OM",
        "nombre": "Digital Print",
        "direccion": "Juan Montalvo 24-50 y, Riobamba 060102, Ecuador",
        "provincia": "Tungurahua",
        "lat": -1.6678516,
        "lng": -78.6525028,
        "rating": 5,
        "website": null,
        "keyword_found": "libros"
    },
    {
        "place_id": "ChIJ94feZpep05ERMenmxyKRaVk",
        "nombre": "Wanderlot Café",
        "direccion": "Eugenio Espejo, y, Riobamba 060111, Ecuador",
        "provincia": "Tungurahua",
        "lat": -1.6747007,
        "lng": -78.65028769999999,
        "rating": 5,
        "website": "https://www.wanderlot.ec/",
        "keyword_found": "libros"
    },
    {
        "place_id": "ChIJb8WLwiOR05ER9cvV7-T0OT8",
        "nombre": "Libreria Viera",
        "direccion": "Luis A. Martínez, Baños de Agua Santa, Ecuador",
        "provincia": "Tungurahua",
        "lat": -1.3987185,
        "lng": -78.4231916,
        "rating": 4.7,
        "website": null,
        "keyword_found": "libros"
    },
    {
        "place_id": "ChIJWabGzS-o05ER_OtyABouRFg",
        "nombre": "Books and Bits",
        "direccion": "Av. Daniel León Borja, Plaza Comercial Puruha, y, Riobamba 060102, Ecuador",
        "provincia": "Tungurahua",
        "lat": -1.6621769,
        "lng": -78.6619343,
        "rating": 4.4,
        "website": "https://booksandbits.ec/",
        "keyword_found": "libros"
    },
    {
        "place_id": "ChIJzW7myqhh1JER4ZCfMppILP0",
        "nombre": "MARQAS BOUTIQUE GRÁFICA DE IMPRESIONES",
        "direccion": "Dos De Mayo, Y, Latacunga 050150, Ecuador",
        "provincia": "Tungurahua",
        "lat": -0.9291677,
        "lng": -78.6184145,
        "rating": 4.3,
        "website": null,
        "keyword_found": "libros"
    },
    {
        "place_id": "ChIJt-G_KWSB05ER3mKAEAkoNK4",
        "nombre": "Imprenta Gomez",
        "direccion": "Pomelos esquina, Ambato 180108, Ecuador",
        "provincia": "Tungurahua",
        "lat": -1.2457153,
        "lng": -78.64208239999999,
        "rating": 5,
        "website": null,
        "keyword_found": "libros"
    },
    {
        "place_id": "ChIJt6neEWup05EREFwGGFizVmg",
        "nombre": "Librería \"LA LEY\"",
        "direccion": "Av. Jose Veloz &, Riobamba, Ecuador",
        "provincia": "Tungurahua",
        "lat": -1.6694224,
        "lng": -78.6515864,
        "rating": 4.5,
        "website": null,
        "keyword_found": "libros"
    },
    {
        "place_id": "ChIJTe0Lcrap05ERCbFxw9taJMY",
        "nombre": "Librería Chimborazo",
        "direccion": "Cristobal Colon 24 10 y, Riobamba, Ecuador",
        "provincia": "Tungurahua",
        "lat": -1.6716313,
        "lng": -78.6487617,
        "rating": 4.2,
        "website": "http://www.libreriachimborazo.com/",
        "keyword_found": "libros"
    },
    {
        "place_id": "ChIJiV2u7RWC05ER3Wqqhi8dfu8",
        "nombre": "expomundo",
        "direccion": "ALFREDO JACOME, Y, Ambato 180103, Ecuador",
        "provincia": "Tungurahua",
        "lat": -1.2793273,
        "lng": -78.6351201,
        "rating": 3.6,
        "website": null,
        "keyword_found": "libros"
    },
    {
        "place_id": "ChIJIY6vVv2B05ERFXdGgFANBtg",
        "nombre": "IMAGGEN Imprenta - Rotulación",
        "direccion": "Av. El Cóndor, Y, Ambato 180101, Ecuador",
        "provincia": "Tungurahua",
        "lat": -1.2708847,
        "lng": -78.6207417,
        "rating": 5,
        "website": null,
        "keyword_found": "libros"
    },
    {
        "place_id": "ChIJwQkOh76B05ERdbjvGijFbHM",
        "nombre": "Librería Futuro",
        "direccion": "Q94C+XCR, Ambato 180101, Ecuador",
        "provincia": "Tungurahua",
        "lat": -1.2425011,
        "lng": -78.6289932,
        "rating": 5,
        "website": null,
        "keyword_found": "libros"
    },
    {
        "place_id": "ChIJp7hWJRWB05ERV6uNQAgCB8Q",
        "nombre": "LUA Bakery & Coffee",
        "direccion": "Av. Guaytambos, y, Ambato 180108, Ecuador",
        "provincia": "Tungurahua",
        "lat": -1.2460486,
        "lng": -78.640027,
        "rating": 4.7,
        "website": "https://instagram.com/luabakerycoffee?igshid=OGQ5ZDc2ODk2ZA==",
        "keyword_found": "libros"
    },
    {
        "place_id": "ChIJy1724USB05ERDXwRoOL7_N4",
        "nombre": "Librería y Distribuidora M & S",
        "direccion": "Av Cevallos, y 05-51, Ambato 180101, Ecuador",
        "provincia": "Tungurahua",
        "lat": -1.2424994,
        "lng": -78.6282672,
        "rating": 4.2,
        "website": null,
        "keyword_found": "libros"
    },
    {
        "place_id": "ChIJXUnqlLqB05ERfaXpBL68G5A",
        "nombre": "Bazar y Papeleria La Tranca 5",
        "direccion": "Calle Joaquín Aillón 07-30 y, Ambato 180101, Ecuador",
        "provincia": "Tungurahua",
        "lat": -1.2365304,
        "lng": -78.6245304,
        "rating": 4.3,
        "website": null,
        "keyword_found": "libros"
    },
    {
        "place_id": "ChIJm1_W2A2D05ERLwTwNEkj3Qo",
        "nombre": "IMPORTADORA GM BRUÑO S.A.(Ambato)",
        "direccion": "Av.Guayllabamba 345 y, Ambato 180207, Ecuador",
        "provincia": "Tungurahua",
        "lat": -1.2654106,
        "lng": -78.62584,
        "rating": 4,
        "website": null,
        "keyword_found": "libros"
    },
    {
        "place_id": "ChIJhyi3Vq-B05ERnZ8fZnjor-4",
        "nombre": "Librería Médica del Ecuador",
        "direccion": "Ambato Avenida Bolivariana y Pan de Azúcar esquina junto a la línea del tren, Ambato 180201, Ecuador",
        "provincia": "Tungurahua",
        "lat": -1.2478951,
        "lng": -78.6202304,
        "rating": 5,
        "website": null,
        "keyword_found": "libros"
    },
    {
        "place_id": "ChIJ37Nw-byB05ER6qg6WIFuig8",
        "nombre": "Bazar Y Libreria \"ABC\"",
        "direccion": "Q95F+4VJ, Joaquín Hervas, Ambato 180109, Ecuador",
        "provincia": "Tungurahua",
        "lat": -1.2421556,
        "lng": -78.625362,
        "rating": 4.2,
        "website": null,
        "keyword_found": "libros"
    },
    {
        "place_id": "ChIJA8o3PCWB05ERjnViklueAtM",
        "nombre": "Librería Cultura",
        "direccion": "Av. Doce de Noviembre &, Ambato, Ecuador",
        "provincia": "Tungurahua",
        "lat": -1.244217,
        "lng": -78.62675569999999,
        "rating": 5,
        "website": "https://www.instagram.com/libreria.cultura.ambt/?hl=es-la",
        "keyword_found": "libros"
    },
    {
        "place_id": "ChIJj1zpIj_11JER01z_oOzaE38",
        "nombre": "Mercado Indigena De Saquisili",
        "direccion": "587P+33M, Saquisilí, Ecuador",
        "provincia": "Tungurahua",
        "lat": -0.8372955,
        "lng": -78.6648218,
        "rating": 4.3,
        "website": null,
        "keyword_found": "libros"
    },
    {
        "place_id": "ChIJ0f_mRAqD05ERasZN-FJMt5k",
        "nombre": "BOOKS Medical",
        "direccion": "Julio Andrade, Ambato 180103, Ecuador",
        "provincia": "Tungurahua",
        "lat": -1.2884096,
        "lng": -78.6358858,
        "rating": null,
        "website": null,
        "keyword_found": "libros"
    },
    {
        "place_id": "ChIJn16w1OSB05ERisuGVvSA2gU",
        "nombre": "Librería Bíblica",
        "direccion": "Juan León Mera, Ambato 108103, Ecuador",
        "provincia": "Tungurahua",
        "lat": -1.2412929,
        "lng": -78.62860859999999,
        "rating": 5,
        "website": null,
        "keyword_found": "libros"
    },
    {
        "place_id": "ChIJn4ySfQCB05ERcPTDxNexczs",
        "nombre": "Librería Española Ambato",
        "direccion": "Ambato, Ecuador",
        "provincia": "Tungurahua",
        "lat": -1.2638083,
        "lng": -78.6394887,
        "rating": 5,
        "website": "https://www.libreriaespanola.com/",
        "keyword_found": "libros"
    },
    {
        "place_id": "ChIJK10Ymk2p05ERErYCyL1SOYY",
        "nombre": "LIBRERÍA & PAPELERÍA \"PRIMICIAS\"",
        "direccion": "Guayaquil 26-59 y, Pichincha esquina, Riobamba 060105, Ecuador",
        "provincia": "Tungurahua",
        "lat": -1.6715142,
        "lng": -78.65255239999999,
        "rating": 4.2,
        "website": null,
        "keyword_found": "libros"
    },
    {
        "place_id": "ChIJvbg0L_-B05ER5Flr1739chY",
        "nombre": "Imprenta Morejón - Agencia SRI CENTRO",
        "direccion": "Simón Bolívar 15-64 y, Ambato 180103, Ecuador",
        "provincia": "Tungurahua",
        "lat": -1.2402919,
        "lng": -78.6280189,
        "rating": 1,
        "website": null,
        "keyword_found": "libros"
    },
    {
        "place_id": "ChIJjWFXSgCF05ERwSZxb5sKjs4",
        "nombre": "SOLUCIONES BÍBLICAS SUCURSAL PELILEO",
        "direccion": "MFC4+5F4, Av Padre Jorge Chacon, Pelileo, Ecuador",
        "provincia": "Tungurahua",
        "lat": -1.3295838,
        "lng": -78.5438085,
        "rating": 5,
        "website": "https://www.instagram.com/solucionesbiblicas/profilecard/?igsh=MzM2a2pjbjl3bjVv",
        "keyword_found": "libros"
    },
    {
        "place_id": "ChIJuXBm6hWC05ERLP7IPJ2ogRw",
        "nombre": "King´s Market",
        "direccion": "P9C7+CQM, José Peralta, Ambato 180103, Ecuador",
        "provincia": "Tungurahua",
        "lat": -1.2789147,
        "lng": -78.6355738,
        "rating": 4.6,
        "website": "https://www.facebook.com/La-Oficina-Discotek-716849388387306/",
        "keyword_found": "libros"
    },
    {
        "place_id": "ChIJaUuAFcCB05ERGz3FTEdHqC8",
        "nombre": "Creart & Diseños Print",
        "direccion": "Q947+HV7, Av. Rodrigo Pachano, Ambato 180101, Ecuador",
        "provincia": "Tungurahua",
        "lat": -1.2435875,
        "lng": -78.6353348,
        "rating": 4.1,
        "website": "https://www.creart.com.ec/",
        "keyword_found": "libros"
    },
    {
        "place_id": "ChIJbe8M9sqB05ERZtTW6LaCTiU",
        "nombre": "Libreria Santo Domingo",
        "direccion": "Juan Montalvo 6, Ambato 180101, Ecuador",
        "provincia": "Tungurahua",
        "lat": -1.2430494,
        "lng": -78.62794760000001,
        "rating": 4.1,
        "website": "https://www.facebook.com/pg/libreriasantodomingo/about/?ref=page_internal",
        "keyword_found": "libros"
    },
    {
        "place_id": "ChIJDxv9LCip05ER8wqWzKB58Ns",
        "nombre": "Asteroide B612 Riobamba",
        "direccion": "Av. Antonio José de Sucre, Riobamba 060108, Ecuador",
        "provincia": "Tungurahua",
        "lat": -1.6544575,
        "lng": -78.6461406,
        "rating": 4.3,
        "website": null,
        "keyword_found": "libros"
    },
    {
        "place_id": "ChIJ25dn5t-p05ERHYRRduO_4wc",
        "nombre": "Librería Cristiana Pan De Vida",
        "direccion": "Mercado de San Francisco, Riobamba, Ecuador",
        "provincia": "Tungurahua",
        "lat": -1.6749983,
        "lng": -78.6471546,
        "rating": 5,
        "website": null,
        "keyword_found": "libros"
    },
    {
        "place_id": "ChIJV-FL8JNj1JERvq1c0GRwVrQ",
        "nombre": "Internet-Papeleria",
        "direccion": "2C78+VXH, Calle Belisario Quevedo, Latacunga, Ecuador",
        "provincia": "Tungurahua",
        "lat": -0.9853096999999998,
        "lng": -78.5825175,
        "rating": 4.3,
        "website": "http://edwinflch8.wix.com/arielpapeleria",
        "keyword_found": "libros"
    },
    {
        "place_id": "ChIJ16L-hSyB05ERuOb_8kguRQw",
        "nombre": "Grupo Copy Master Ambato / Distribuidor de Textos / Importadora Copy Master Ambato",
        "direccion": "Av. Ruminahui 06-132 y, Ambato 180202, Ecuador",
        "provincia": "Tungurahua",
        "lat": -1.2529196,
        "lng": -78.62892099999999,
        "rating": 5,
        "website": "https://facebook.com/grupocopymasterambato.ec",
        "keyword_found": "libros"
    },
    {
        "place_id": "ChIJ5zGMMhB_05ER1WxTaKbWBKU",
        "nombre": "Curtiembre Quisapincha",
        "direccion": "Quizapincha. Av. Circunvalación Alonso Palacios y Cóndor Ambato, Quizapincha, Ecuador",
        "provincia": "Tungurahua",
        "lat": -1.2364285,
        "lng": -78.6882262,
        "rating": 4.3,
        "website": "http://www.curtiembrequisapincha.com/",
        "keyword_found": "libros"
    },
    {
        "place_id": "ChIJo8VAlTOp05ERwHjebYPLjII",
        "nombre": "Mundo de Papel Riobamba",
        "direccion": "Primera Constituyente, Riobamba 060111, Ecuador",
        "provincia": "Tungurahua",
        "lat": -1.674053,
        "lng": -78.6471993,
        "rating": 3.3,
        "website": "https://www.facebook.com/p/MUNDO-De-PAPEL-Distribuidora-%C3%9Atiles-Escolares-y-Oficina-100063706115586/",
        "keyword_found": "libros escolares"
    },
    {
        "place_id": "ChIJ05DGjruB05ERR4MMHHzYPx0",
        "nombre": "Editorial Don Bosco",
        "direccion": "Darquea 5-23, Ambato 180109, Ecuador",
        "provincia": "Tungurahua",
        "lat": -1.2398486,
        "lng": -78.6266976,
        "rating": null,
        "website": "http://www.edibosco.com/",
        "keyword_found": "libros escolares"
    },
    {
        "place_id": "ChIJtZmIB96B05ER3z45A6fsqcg",
        "nombre": "SistemDemy",
        "direccion": "Av. Juan Benigno Vela y, Mera, Ambato 180103, Ecuador",
        "provincia": "Tungurahua",
        "lat": -1.2427432,
        "lng": -78.6273058,
        "rating": null,
        "website": null,
        "keyword_found": "textos escolares"
    },
    {
        "place_id": "ChIJIzRTMDWB05ERCM412V3OKuI",
        "nombre": "Ilvem Ecuador l Ambato",
        "direccion": "Sucre, y, Ambato 180101, Ecuador",
        "provincia": "Tungurahua",
        "lat": -1.241809,
        "lng": -78.6281983,
        "rating": 4.8,
        "website": "https://ilvemecuador.com/",
        "keyword_found": "textos escolares"
    },
    {
        "place_id": "ChIJIUfp8eeB05ERRhoBl_IcCKc",
        "nombre": "DIARIO EL HERALDO",
        "direccion": "05-37 y, Juan Montalvo, Ambato 180101, Ecuador",
        "provincia": "Tungurahua",
        "lat": -1.2424132,
        "lng": -78.6284208,
        "rating": 3.9,
        "website": "https://www.elheraldo.com.ec/",
        "keyword_found": "textos escolares"
    },
    {
        "place_id": "ChIJzXxkSNiB05ERkyHHd-1c4dM",
        "nombre": "Ötlet_ideas",
        "direccion": "P9R7+8M6, Ambato 180101, Ecuador",
        "provincia": "Tungurahua",
        "lat": -1.259223,
        "lng": -78.6358661,
        "rating": 5,
        "website": "https://www.facebook.com/otlet10",
        "keyword_found": "material educativo"
    },
    {
        "place_id": "ChIJKab2w9WB05ERXipS-2N-aaQ",
        "nombre": "Genius Juguetes y Material Didáctico",
        "direccion": "Q98P+979, Venezuela, Ambato 180104, Ecuador",
        "provincia": "Tungurahua",
        "lat": -1.2340951,
        "lng": -78.6142563,
        "rating": 5,
        "website": null,
        "keyword_found": "material educativo"
    },
    {
        "place_id": "ChIJlfRQX_Fh1JERVw6HXXBn1Pw",
        "nombre": "Didaktika Material Didactico Ecuador",
        "direccion": "Av. Atahualpa, y, Latacunga, Ecuador",
        "provincia": "Tungurahua",
        "lat": -0.9391706,
        "lng": -78.6079121,
        "rating": null,
        "website": "https://www.materialdidacticoecuador.com/",
        "keyword_found": "material educativo"
    },
    {
        "place_id": "ChIJH4Dqvj5h1JERO2mngDUCLQA",
        "nombre": "Ilvem Ecuador | Latacunga",
        "direccion": "C. Manuel de Jesús Quijano y Ordoñes 1146-1272, Latacunga 050102, Ecuador",
        "provincia": "Tungurahua",
        "lat": -0.9374971999999999,
        "lng": -78.6127293,
        "rating": 4.9,
        "website": "https://ilvemecuador.com/",
        "keyword_found": "material educativo"
    },
    {
        "place_id": "ChIJoYJFjDaB05ERFhpcVTKSOCQ",
        "nombre": "NICPREU Preuniversitario",
        "direccion": "Av. Atahualpa, y, Ambato 180101, Ecuador",
        "provincia": "Tungurahua",
        "lat": -1.2589894,
        "lng": -78.6294824,
        "rating": 5,
        "website": "https://nicpreuniversitario.com/",
        "keyword_found": "material educativo"
    },
    {
        "place_id": "ChIJQdIB-jGo05ERgI4qo5jd--Q",
        "nombre": "Papeleria \"San Francisco\"",
        "direccion": "Primera Constituyente, Riobamba, Ecuador",
        "provincia": "Tungurahua",
        "lat": -1.676401,
        "lng": -78.64494599999999,
        "rating": 4.3,
        "website": null,
        "keyword_found": "material educativo"
    },
    {
        "place_id": "ChIJvXxJ-jmp05ERJsmnk3Mn_VQ",
        "nombre": "Todo Arte Papelería kawaii",
        "direccion": "10 de Agosto, Riobamba, Ecuador",
        "provincia": "Tungurahua",
        "lat": -1.6764817,
        "lng": -78.64579239999999,
        "rating": 4,
        "website": "https://www.instagram.com/invites/contact/?i=1qtrdqpprhcm9&utm_content=h8dni3x",
        "keyword_found": "material educativo"
    },
    {
        "place_id": "ChIJcZseUL1m1JERiIUd7CbZRwQ",
        "nombre": "Unidad Educativa \"Sumak Kawsay\"",
        "direccion": "2FW4+X93, Latacunga, Ecuador",
        "provincia": "Tungurahua",
        "lat": -0.9526083,
        "lng": -78.5440656,
        "rating": 4,
        "website": null,
        "keyword_found": "material educativo"
    },
    {
        "place_id": "ChIJbRVSDldh1JERIdVyr0Xws3w",
        "nombre": "NICPREU Preuniversitario",
        "direccion": "C. Quito, Latacunga 050150, Ecuador",
        "provincia": "Tungurahua",
        "lat": -0.9356403999999998,
        "lng": -78.614902,
        "rating": 4.9,
        "website": "https://nicpreuniversitario.com/",
        "keyword_found": "material educativo"
    },
    {
        "place_id": "ChIJzdm5VEFh1JERKsx13aKqM3Q",
        "nombre": "Operadora de Capacitación San José",
        "direccion": "y del Copal, Av Unidad Nacional, Latacunga 050101, Ecuador",
        "provincia": "Tungurahua",
        "lat": -0.9570275,
        "lng": -78.6111687,
        "rating": 4.9,
        "website": "http://www.sanjoseoperadora.com/",
        "keyword_found": "material educativo"
    },
    {
        "place_id": "ChIJeW6Yoeup05ERIfcNaUKCsyY",
        "nombre": "Librería",
        "direccion": "1234, Riobamba, Ecuador",
        "provincia": "Tungurahua",
        "lat": -1.6580781,
        "lng": -78.6436025,
        "rating": null,
        "website": null,
        "keyword_found": "material educativo"
    },
    {
        "place_id": "ChIJFwmr1C-o05ERNpoG9qR_9Yc",
        "nombre": "Unidad Educativa San Felipe Neri",
        "direccion": "Juan de Velasco 2438, Riobamba, Ecuador",
        "provincia": "Tungurahua",
        "lat": -1.6737406,
        "lng": -78.6458135,
        "rating": 4.3,
        "website": "http://www.sfelipeneri.edu.ec/",
        "keyword_found": "material educativo"
    },
    {
        "place_id": "ChIJwRrVruYH05ERIfppiIaUH3k",
        "nombre": "Unidad Educativa \"Víctor Proaño Carrión\"",
        "direccion": "Rafael Badillo y Av, Calpi, Ecuador",
        "provincia": "Tungurahua",
        "lat": -1.6465114,
        "lng": -78.7423177,
        "rating": null,
        "website": null,
        "keyword_found": "material educativo"
    },
    {
        "place_id": "ChIJlZVX9AkH05ERytlP16KFA0c",
        "nombre": "New Age Kids",
        "direccion": "Saint Amand Montrond, Riobamba 060103, Ecuador",
        "provincia": "Tungurahua",
        "lat": -1.6546349,
        "lng": -78.6634876,
        "rating": null,
        "website": null,
        "keyword_found": "material educativo"
    },
    {
        "place_id": "ChIJ8ywQg_oH05ERR2gcb8lWcIE",
        "nombre": "Unidad Educativa \"Pensionado Americano International School\"",
        "direccion": "Dolores Veintimilla &, Riobamba, Ecuador",
        "provincia": "Tungurahua",
        "lat": -1.6525885,
        "lng": -78.66577629999999,
        "rating": null,
        "website": "http://www.pensionadoamericano.edu.ec/",
        "keyword_found": "material educativo"
    },
    {
        "place_id": "ChIJo2mvoUCC05ER3p-wXHbLYCY",
        "nombre": "Unidad Educativa Suizo",
        "direccion": "P98C+R3V, Ambato, Ecuador",
        "provincia": "Tungurahua",
        "lat": -1.2829,
        "lng": -78.6298147,
        "rating": null,
        "website": null,
        "keyword_found": "material educativo"
    },
    {
        "place_id": "ChIJO3nDyyaC05ERq0sclsgVJ3w",
        "nombre": "TEDMA Academy - Escuela de Música Online Internacional",
        "direccion": "Geometría Moral SW1-70, Ambato 180203, Ecuador",
        "provincia": "Tungurahua",
        "lat": -1.2707613,
        "lng": -78.6295913,
        "rating": 4.9,
        "website": "https://escuelamusicalonline.com/",
        "keyword_found": "material educativo"
    },
    {
        "place_id": "ChIJpdT8TyaC05ERJ7pGBaY0m9w",
        "nombre": "Faculty of Humanities and Education",
        "direccion": "Río Guayllabamba, Ambato 180207, Ecuador",
        "provincia": "Tungurahua",
        "lat": -1.2666667,
        "lng": -78.62488979999999,
        "rating": 4.6,
        "website": "http://fche.uta.edu.ec/",
        "keyword_found": "material educativo"
    },
    {
        "place_id": "ChIJiQP8I_8H05ERXG4KdYbZlqc",
        "nombre": "Papelería Norte",
        "direccion": "Canónimo Ramos, C. César León Hidalgo, Riobamba 060102, Ecuador",
        "provincia": "Tungurahua",
        "lat": -1.6615532,
        "lng": -78.66355899999999,
        "rating": 5,
        "website": "https://www.facebook.com/Papeler%C3%ADa-Norte-Riobamba-102336674939733/?modal=admin_todo_tour",
        "keyword_found": "papelería"
    },
    {
        "place_id": "ChIJQwBxhfhh1JERxs2DijP5274",
        "nombre": "Papelería Gallardo",
        "direccion": "399C+CF9, Latacunga, Ecuador",
        "provincia": "Tungurahua",
        "lat": -0.9314634,
        "lng": -78.62875050000001,
        "rating": 4.8,
        "website": null,
        "keyword_found": "papelería"
    },
    {
        "place_id": "ChIJLTBQXv2T1JER0WLrvaK-bnw",
        "nombre": "INTYNET- SUPER PAPELERIA DEL AHORRO CHIBULEO",
        "direccion": "COTOPAXI PUJILI, Zumbagua 050104, Ecuador",
        "provincia": "Tungurahua",
        "lat": -0.9620107999999999,
        "lng": -78.8990596,
        "rating": 4.5,
        "website": null,
        "keyword_found": "papelería"
    },
    {
        "place_id": "ChIJ83GefXhh1JERw2RtYRXYxZo",
        "nombre": "Papelería \"Speednet\"",
        "direccion": "y La Copal, Av Unidad Nacional, Latacunga 050102, Ecuador",
        "provincia": "Tungurahua",
        "lat": -0.9556945000000001,
        "lng": -78.6110266,
        "rating": 4.4,
        "website": null,
        "keyword_found": "papelería"
    },
    {
        "place_id": "ChIJaSKoBLOB05ER_9XMRLYU63U",
        "nombre": "Papelería A & A",
        "direccion": "Vírgen del Sol &, Ambato 180101, Ecuador",
        "provincia": "Tungurahua",
        "lat": -1.2278547,
        "lng": -78.6260583,
        "rating": 5,
        "website": null,
        "keyword_found": "papelería"
    },
    {
        "place_id": "ChIJb_OvW72D05ERylH9ueMC6Ko",
        "nombre": "Papelería la fuente del saber",
        "direccion": "PC56+G78, 10 De Agosto, Ambato 180205, Ecuador",
        "provincia": "Tungurahua",
        "lat": -1.2912035,
        "lng": -78.5892971,
        "rating": 4.5,
        "website": null,
        "keyword_found": "papelería"
    },
    {
        "place_id": "ChIJNRcp_Z9f1JERtN7eXF7dyD4",
        "nombre": "Bazar y Papelería C&C",
        "direccion": "Av. Miguel Iturralde 50-60, Latacunga, Ecuador",
        "provincia": "Tungurahua",
        "lat": -0.8875381,
        "lng": -78.61639939999999,
        "rating": 4.7,
        "website": null,
        "keyword_found": "papelería"
    },
    {
        "place_id": "ChIJPX0-51SD05ERuiGEbEkGqRM",
        "nombre": "Papelería y Maquetas ADRY'S, bazar y algo más...",
        "direccion": "Unnamed Road, Ecuador",
        "provincia": "Tungurahua",
        "lat": -1.3331372,
        "lng": -78.6381497,
        "rating": 4.5,
        "website": "https://www.facebook.com/125670570444998",
        "keyword_found": "papelería"
    },
    {
        "place_id": "ChIJ1zSR27-R05ERIa6nij1ifKQ",
        "nombre": "Papelería Magic Cartoon",
        "direccion": "16 de diciembre, y, Baños de Agua Santa 180250, Ecuador",
        "provincia": "Tungurahua",
        "lat": -1.3967207,
        "lng": -78.4215033,
        "rating": 5,
        "website": "https://www.facebook.com/profile.php?id=100063704633891",
        "keyword_found": "papelería"
    },
    {
        "place_id": "ChIJkwsygT6p05ERIxQJrTzU-Gg",
        "nombre": "Bazar y Papelería NC",
        "direccion": "Febres Cordero 1643, Riobamba 060111, Ecuador",
        "provincia": "Tungurahua",
        "lat": -1.6714487,
        "lng": -78.6426489,
        "rating": 5,
        "website": null,
        "keyword_found": "papelería"
    },
    {
        "place_id": "ChIJRaSmJQCD05ERLFPFSmUjbRU",
        "nombre": "PAPELERÍA Y VARIEDADES \"QUE NOTA\"",
        "direccion": "Picaihua, Tangaiche, Ambato 180214, Ecuador",
        "provincia": "Tungurahua",
        "lat": -1.2917544,
        "lng": -78.59132819999999,
        "rating": 5,
        "website": null,
        "keyword_found": "papelería"
    },
    {
        "place_id": "ChIJeTgqNE6C05ER9Og8EznGuM8",
        "nombre": "Papelería y Cyber \"Anny\"",
        "direccion": "Parroquia, Ambato 180215, Ecuador",
        "provincia": "Tungurahua",
        "lat": -1.2911227,
        "lng": -78.6196539,
        "rating": 4.4,
        "website": null,
        "keyword_found": "papelería"
    },
    {
        "place_id": "ChIJP9NY9vCB05ERTj_8-2qEJCI",
        "nombre": "Internet@",
        "direccion": "César Cantu, Ambato 180101, Ecuador",
        "provincia": "Tungurahua",
        "lat": -1.2614528,
        "lng": -78.6429701,
        "rating": 4.7,
        "website": "https://internet-paperstore.negocio.site/",
        "keyword_found": "papelería"
    },
    {
        "place_id": "ChIJAc8HEvOB05ER7BGra1u5qwc",
        "nombre": "Bazar y Papeleria Anahi",
        "direccion": "RC32+99W, Via Sta. Fe, Ambato 180152, Ecuador",
        "provincia": "Tungurahua",
        "lat": -1.1965236,
        "lng": -78.59904499999999,
        "rating": 4.7,
        "website": null,
        "keyword_found": "papelería"
    },
    {
        "place_id": "ChIJ-0mEgsqB05EREwGxztzZC5w",
        "nombre": "PAPELERIA Y BAZAR PAZ.NET",
        "direccion": "180204, Ambato 180204, Ecuador",
        "provincia": "Tungurahua",
        "lat": -1.2611038,
        "lng": -78.6326078,
        "rating": 5,
        "website": null,
        "keyword_found": "papelería"
    },
    {
        "place_id": "ChIJleJfjjkH05ER8Y6B6XXZzuE",
        "nombre": "Internet y Papelería RyR",
        "direccion": "riobamba Av. 11 de noviembre, y, Riobamba 060104, Ecuador",
        "provincia": "Tungurahua",
        "lat": -1.6610443,
        "lng": -78.6747686,
        "rating": 5,
        "website": null,
        "keyword_found": "papelería"
    },
    {
        "place_id": "ChIJaxJBQQBh1JERA9VnPjmfnzg",
        "nombre": "Papelería Mega Student Latacunga",
        "direccion": "Av.Antonio Clavijo 1-140, Ecuador",
        "provincia": "Tungurahua",
        "lat": -0.9306333999999999,
        "lng": -78.618135,
        "rating": 4,
        "website": null,
        "keyword_found": "papelería"
    },
    {
        "place_id": "ChIJwerGHwCB05ER6kr69ftZy3I",
        "nombre": "Papeleria Benjamin",
        "direccion": "AVENIDA BOLIVARIANA, FRENTE A LA UNIDAD EDUCATIVA GUAYAQUIL, Y, Ambato, Ecuador",
        "provincia": "Tungurahua",
        "lat": -1.2590942,
        "lng": -78.6140071,
        "rating": 5,
        "website": "https://papeleriabenjamin.com/",
        "keyword_found": "papelería"
    },
    {
        "place_id": "ChIJJTwiuj6B05ERrAKmJ3MVWuQ",
        "nombre": "Papelería y Variedades Valdéz",
        "direccion": "180205, Ambato 180205, Ecuador",
        "provincia": "Tungurahua",
        "lat": -1.257413,
        "lng": -78.614492,
        "rating": 5,
        "website": null,
        "keyword_found": "papelería"
    },
    {
        "place_id": "ChIJ-Se53lFg1JERN8w50qFGIsE",
        "nombre": "Pawa Papeleria",
        "direccion": "Latacunga, Ecuador",
        "provincia": "Tungurahua",
        "lat": -0.8652391,
        "lng": -78.5957993,
        "rating": 3,
        "website": null,
        "keyword_found": "papelería"
    },
    {
        "place_id": "ChIJf2iQ7mip05ERN-xs4zvXWJA",
        "nombre": "SAMY Papelería",
        "direccion": "Av. Alfonso Chávez, y, Riobamba, Ecuador",
        "provincia": "Tungurahua",
        "lat": -1.6611699,
        "lng": -78.6379433,
        "rating": 5,
        "website": "https://www.facebook.com/SAMY-Papeler%C3%ACa-103601675795883/?ref=page_internal",
        "keyword_found": "papelería"
    },
    {
        "place_id": "ChIJ00fB-qsH05ERCvYBBxjVrk0",
        "nombre": "Bazar & Papeleria \"Anita\"",
        "direccion": "Colombia &, Riobamba 060104, Ecuador",
        "provincia": "Tungurahua",
        "lat": -1.6699773,
        "lng": -78.6588785,
        "rating": 5,
        "website": null,
        "keyword_found": "papelería"
    },
    {
        "place_id": "ChIJlzQFZtWp05ER4BAcoDuo-KA",
        "nombre": "LEBRERÍA Y PAPELERÍA CLAMOR DE DIOS",
        "direccion": "060107, Riobamba, Ecuador",
        "provincia": "Tungurahua",
        "lat": -1.6603769,
        "lng": -78.6493472,
        "rating": 5,
        "website": null,
        "keyword_found": "papelería"
    },
    {
        "place_id": "ChIJO-A161iL1JERGxzEQcCQDLY",
        "nombre": "Bazar y Papelería Danielita",
        "direccion": "Jose Joaquin de Olmedo 8-10, Pujilí 050401, Ecuador",
        "provincia": "Tungurahua",
        "lat": -0.9534760000000001,
        "lng": -78.6957949,
        "rating": 5,
        "website": null,
        "keyword_found": "papelería"
    },
    {
        "place_id": "ChIJKzbLVniB05ER41LOiFGH59Q",
        "nombre": "Martina Bazar y Papelería",
        "direccion": "Ambato 1, Ambato 150303, Ecuador",
        "provincia": "Tungurahua",
        "lat": -1.2542666,
        "lng": -78.6229475,
        "rating": 5,
        "website": null,
        "keyword_found": "papelería"
    },
    {
        "place_id": "ChIJVfZWLt2B05ER1b8uW8VVnb0",
        "nombre": "Papelería & Bazar la Nube",
        "direccion": "Jose Suárez y pasaje José Freile, Ambato 180202, Ecuador",
        "provincia": "Tungurahua",
        "lat": -1.2537186,
        "lng": -78.6240092,
        "rating": 4,
        "website": null,
        "keyword_found": "papelería"
    },
    {
        "place_id": "ChIJOxYj84OB05ERD5O47f7XraQ",
        "nombre": "Cyber Ficoa",
        "direccion": "Av. los Guaytambos 12 - 59 y, Ambato 180101, Ecuador",
        "provincia": "Tungurahua",
        "lat": -1.2444824,
        "lng": -78.6387099,
        "rating": 4.5,
        "website": null,
        "keyword_found": "papelería"
    },
    {
        "place_id": "ChIJ81XMuz6p05ER4_NCBATP6Dk",
        "nombre": "Bazar y Papeleria Buena Nota",
        "direccion": "Nueva York 3660, Riobamba, Ecuador",
        "provincia": "Tungurahua",
        "lat": -1.6615425,
        "lng": -78.6525987,
        "rating": 5,
        "website": null,
        "keyword_found": "papelería"
    },
    {
        "place_id": "ChIJe2KMWjVh1JERu-sY1BU_iME",
        "nombre": "Papeleria Super Exito - Llanta Radial",
        "direccion": "Juan Abel Echeverria, y 10-68, Latacunga 050103, Ecuador",
        "provincia": "Tungurahua",
        "lat": -0.929985,
        "lng": -78.6125969,
        "rating": 5,
        "website": null,
        "keyword_found": "papelería"
    },
    {
        "place_id": "ChIJ-VfrZk2F05ERWrcq3ufcq20",
        "nombre": "The Student",
        "direccion": "180701, Pelileo, Ecuador",
        "provincia": "Tungurahua",
        "lat": -1.3244776,
        "lng": -78.5384486,
        "rating": 4.7,
        "website": null,
        "keyword_found": "papelería"
    },
    {
        "place_id": "ChIJNUXycS-D05ER-xYkiBnVMpo",
        "nombre": "Minimarket y Papelería Famey",
        "direccion": "Ambato, Ecuador",
        "provincia": "Tungurahua",
        "lat": -1.2873775,
        "lng": -78.6311419,
        "rating": 3.3,
        "website": null,
        "keyword_found": "papelería"
    },
    {
        "place_id": "ChIJl8dEoI-B05ERDDTWzZvO-fA",
        "nombre": "PAPELERIA FANTASY",
        "direccion": "Av. Pichincha, Ambato 180202, Ecuador",
        "provincia": "Tungurahua",
        "lat": -1.2568153,
        "lng": -78.6245251,
        "rating": 5,
        "website": null,
        "keyword_found": "papelería"
    },
    {
        "place_id": "ChIJMd_dXi6K1JERPslep1qXZLg",
        "nombre": "EVA Economia y Variedades",
        "direccion": "28V4+M2G, Unnamed Road, Pujilí, Ecuador",
        "provincia": "Tungurahua",
        "lat": -0.9558205,
        "lng": -78.69490689999999,
        "rating": 5,
        "website": null,
        "keyword_found": "papelería"
    },
    {
        "place_id": "ChIJ-2f_5x9h1JERYylpdRC0VaE",
        "nombre": "Bazar y Papelería Butterfly Store",
        "direccion": "Gonzalo Mostesdeoca, y, Latacunga 050106, Ecuador",
        "provincia": "Tungurahua",
        "lat": -0.9682773,
        "lng": -78.6140875,
        "rating": 5,
        "website": "https://t.me/bttrflyltga",
        "keyword_found": "papelería"
    },
    {
        "place_id": "ChIJz6ztwDmD05ERhJ2gd3DGTE4",
        "nombre": "Papelería y librerìa \"Yayo y Yaya\"",
        "direccion": "P985+G65, Vía a Sta Rosa, Ambato, Ecuador",
        "provincia": "Tungurahua",
        "lat": -1.2837495,
        "lng": -78.64188209999999,
        "rating": 3.7,
        "website": "https://www.facebook.com/yayoslibreria",
        "keyword_found": "papelería"
    },
    {
        "place_id": "ChIJqW4scyqp05ER_fujzEs7ZNY",
        "nombre": "Importadora Merino - Suministros de Oficina y Papeleria",
        "direccion": "Av. Alfonso Chavez, Riobamba 060108, Ecuador",
        "provincia": "Tungurahua",
        "lat": -1.6612854,
        "lng": -78.6376538,
        "rating": 5,
        "website": null,
        "keyword_found": "papelería"
    },
    {
        "place_id": "ChIJn0BeVriB05ERhSykPasdKsU",
        "nombre": "AmbaTech Tecnología y Papelería",
        "direccion": "Nary Pillahuazo, y, Ambato 180202, Ecuador",
        "provincia": "Tungurahua",
        "lat": -1.2576654,
        "lng": -78.62915,
        "rating": 5,
        "website": "https://www.facebook.com/profile.php?id=100093195937177&mibextid=ZbWKwL",
        "keyword_found": "papelería"
    },
    {
        "place_id": "ChIJ_bC8Gbt91JERafQ6HRR5hgI",
        "nombre": "Bazar y papelería Carlitos",
        "direccion": "050601, Salcedo 050601, Ecuador",
        "provincia": "Tungurahua",
        "lat": -1.0428797,
        "lng": -78.587806,
        "rating": 5,
        "website": null,
        "keyword_found": "papelería"
    },
    {
        "place_id": "ChIJbYJ2RHbt1JERbxXLUxjCtHw",
        "nombre": "CYBER DOÑA MECHITA",
        "direccion": "53GR+VR4 Guayama san pedro, Chucchilán, Ecuador",
        "provincia": "Tungurahua",
        "lat": -0.8228662999999999,
        "lng": -78.90792669999999,
        "rating": 5,
        "website": null,
        "keyword_found": "papelería"
    },
    {
        "place_id": "ChIJRdoVxT-C05ERLzrj8mRpaUI",
        "nombre": "SERVICARTON CIA. LTDA.",
        "direccion": "Ramón Salazar, la Esperanza, y, Ambato 180103, Ecuador",
        "provincia": "Tungurahua",
        "lat": -1.2811687,
        "lng": -78.6334346,
        "rating": 4.5,
        "website": "http://www.mikrocarton.com/",
        "keyword_found": "papelería"
    },
    {
        "place_id": "ChIJIRwthl991JERqsihOomMsUY",
        "nombre": "Mini Bazar Papelería",
        "direccion": "XC32+GJ8, Salcedo, Ecuador",
        "provincia": "Tungurahua",
        "lat": -1.0462012,
        "lng": -78.5984314,
        "rating": 5,
        "website": null,
        "keyword_found": "papelería"
    },
    {
        "place_id": "ChIJ-SAmOJuB05ERMKYJxiiKsVE",
        "nombre": "Minimarket Natalia l Tienda, Bazar, Papelería y Víveres",
        "direccion": "Q927+5GX, Ambato 180101, Ecuador",
        "provincia": "Tungurahua",
        "lat": -1.2495205,
        "lng": -78.6361402,
        "rating": 4.8,
        "website": null,
        "keyword_found": "papelería"
    },
    {
        "place_id": "ChIJG_omACyo05ERRDeRBXtfjW4",
        "nombre": "Papeleria Sabbath",
        "direccion": "Colombia entre 5 de junio, Eugenio Espejo, Riobamba, Ecuador",
        "provincia": "Tungurahua",
        "lat": -1.6764845,
        "lng": -78.65140219999999,
        "rating": 4.5,
        "website": null,
        "keyword_found": "papeleria"
    },
    {
        "place_id": "ChIJfRbxpv6p05ERSWIjymCl1bQ",
        "nombre": "Cyber Papeleria",
        "direccion": "Colombia &, Riobamba, Ecuador",
        "provincia": "Tungurahua",
        "lat": -1.6717494,
        "lng": -78.65666740000002,
        "rating": 5,
        "website": null,
        "keyword_found": "papeleria"
    },
    {
        "place_id": "ChIJYT56Hi2D05ERe7F3515iFRA",
        "nombre": "LILI CYBER PAPELERIA",
        "direccion": "PCF7+HWH, Picaihua 180204, Ecuador",
        "provincia": "Tungurahua",
        "lat": -1.2760689,
        "lng": -78.5851347,
        "rating": 5,
        "website": null,
        "keyword_found": "papeleria"
    },
    {
        "place_id": "ChIJhxgH6c4H05ERNnNVAO5JUJI",
        "nombre": "Bazar & Papeleria",
        "direccion": "87WV+R35, Atacames, Licán, Ecuador",
        "provincia": "Tungurahua",
        "lat": -1.6529798,
        "lng": -78.70725709999999,
        "rating": 5,
        "website": null,
        "keyword_found": "papeleria"
    },
    {
        "place_id": "ChIJl3IffIWB05ERItf41kU5whI",
        "nombre": "Papeleria ArtAttack",
        "direccion": "Guayaquil 03-46, Ambato 180101, Ecuador",
        "provincia": "Tungurahua",
        "lat": -1.2443948,
        "lng": -78.6303427,
        "rating": 4,
        "website": null,
        "keyword_found": "papeleria"
    },
    {
        "place_id": "ChIJqfaBXaqD05ERzqKJmjFDVXk",
        "nombre": "Bazar y Papeleria P&P",
        "direccion": "Dr. Gustavo Álvarez Gavilanes, Ambato 180205, Ecuador",
        "provincia": "Tungurahua",
        "lat": -1.2936226,
        "lng": -78.5940456,
        "rating": 4.1,
        "website": null,
        "keyword_found": "papeleria"
    },
    {
        "place_id": "ChIJfdlYju4H05ERFL2pFbCt9NE",
        "nombre": "CLIP'S PAPELERIA Y SUMINISTROS",
        "direccion": "88VH+796, Av. 11 de Noviembre, Riobamba, Ecuador",
        "provincia": "Tungurahua",
        "lat": -1.6568316,
        "lng": -78.6716094,
        "rating": 3.7,
        "website": "https://www.facebook.com/ClipsRiobamba/",
        "keyword_found": "papeleria"
    },
    {
        "place_id": "ChIJH1vCsz2o05ERNMAA6P8MAIc",
        "nombre": "NICOLE'S BAZAR Y PAPELERIA",
        "direccion": "89P5+58R, Riobamba, Ecuador",
        "provincia": "Tungurahua",
        "lat": -1.6645091,
        "lng": -78.6417285,
        "rating": 5,
        "website": null,
        "keyword_found": "papeleria"
    },
    {
        "place_id": "ChIJreQr-cCp05ER4818WXsIuq0",
        "nombre": "Tienda, Bazar y Papeleria Susanita",
        "direccion": "Barrio Pisin, Riobamba 060104, Ecuador",
        "provincia": "Tungurahua",
        "lat": -1.6694032,
        "lng": -78.6280017,
        "rating": 5,
        "website": null,
        "keyword_found": "papeleria"
    },
    {
        "place_id": "ChIJEXQjNcl51JER84MPSDaFOww",
        "nombre": "BAZAR Y PAPELERIA \"ADRIANITA\"",
        "direccion": "C. Bolivar, Píllaro, Ecuador",
        "provincia": "Tungurahua",
        "lat": -1.1713187,
        "lng": -78.5420122,
        "rating": 5,
        "website": null,
        "keyword_found": "papeleria"
    },
    {
        "place_id": "ChIJ0S-CWbmB05ERfLIFag95b-Q",
        "nombre": "Caicedo Importadora",
        "direccion": "Martínez 410, Ambato 180109, Ecuador",
        "provincia": "Tungurahua",
        "lat": -1.2401333,
        "lng": -78.6285746,
        "rating": 4.7,
        "website": "https://caicedoimportadora.com/",
        "keyword_found": "papelerías"
    },
    {
        "place_id": "ChIJIzA9RQCn05ERjnja5LrLCDg",
        "nombre": "Bazar y Novedades \"KATE\"",
        "direccion": "Cap. Edmundo Chiriboga &, Ecuador",
        "provincia": "Tungurahua",
        "lat": -1.6403263,
        "lng": -78.6522571,
        "rating": 5,
        "website": null,
        "keyword_found": "útiles escolares"
    },
    {
        "place_id": "ChIJcY0wh36D05ER6JOgTllIk5I",
        "nombre": "MULTIMARKET ESTEBAN-ALEXANDER",
        "direccion": "180103, Ambato 180103, Ecuador",
        "provincia": "Tungurahua",
        "lat": -1.27109,
        "lng": -78.62996869999999,
        "rating": 4.8,
        "website": null,
        "keyword_found": "útiles escolares"
    },
    {
        "place_id": "ChIJlzZ-daWB05ER-iVON5QYHhU",
        "nombre": "Distribuidora Ambato",
        "direccion": "Av. Doce de Noviembre &, Ambato 180103, Ecuador",
        "provincia": "Tungurahua",
        "lat": -1.2365072,
        "lng": -78.61985829999999,
        "rating": 4.3,
        "website": null,
        "keyword_found": "útiles escolares"
    },
    {
        "place_id": "ChIJU22R7YqB05ERAhLf1t9yJlg",
        "nombre": "Dilipa",
        "direccion": "Calle Verdeloma y Pasaje, Guagrahuma, Ambato 180205, Ecuador",
        "provincia": "Tungurahua",
        "lat": -1.2402892,
        "lng": -78.6163219,
        "rating": 4.5,
        "website": "https://www.dilipa.com.ec/",
        "keyword_found": "útiles escolares"
    },
    {
        "place_id": "ChIJOQ6nQPEH05ERokKYJp_AJI0",
        "nombre": "SuperPaco Multiplaza Riobamba",
        "direccion": "Av.Lizarzaburu S/N C.C. Multiplaza Riobamba, Riobamba 060107, Ecuador",
        "provincia": "Tungurahua",
        "lat": -1.6565429,
        "lng": -78.66367939999999,
        "rating": 4.3,
        "website": "http://www.superpaco.com/",
        "keyword_found": "útiles escolares"
    },
    {
        "place_id": "ChIJSR19wbeE05ERR_71i8bgbOU",
        "nombre": "BAZAR Y UTILES ESCOLARES LUISITA",
        "direccion": "Centro,, MF94+J6C, Pelileo, Ecuador",
        "provincia": "Tungurahua",
        "lat": -1.3309409,
        "lng": -78.5444689,
        "rating": null,
        "website": null,
        "keyword_found": "útiles escolares"
    },
    {
        "place_id": "ChIJ73zglEqo05ER0WdySCwPkZA",
        "nombre": "Inpapel Cia Ltda",
        "direccion": "Ave Celso Rodriguez, Riobamba 060150, Ecuador",
        "provincia": "Tungurahua",
        "lat": -1.679988,
        "lng": -78.63287199999999,
        "rating": 4.1,
        "website": "http://www.inpapel.com/",
        "keyword_found": "útiles escolares"
    },
    {
        "place_id": "ChIJKQ6HfhSB05ERroJ_bISOAIU",
        "nombre": "Importadora Jiouli",
        "direccion": "Av. Doce de Noviembre, Ambato 180104, Ecuador",
        "provincia": "Tungurahua",
        "lat": -1.2362764,
        "lng": -78.6191024,
        "rating": 4,
        "website": "https://importadorajiouli.com/",
        "keyword_found": "útiles escolares"
    },
    {
        "place_id": "ChIJ1fLuj9Lh05ERqIh0b3HY9fs",
        "nombre": "Emānuels Ĺibrería Papełería y Techzone",
        "direccion": "Av. Confraternidad, y KM 5, 180205, Ecuador",
        "provincia": "Tungurahua",
        "lat": -1.2895162,
        "lng": -78.605105,
        "rating": 4.7,
        "website": null,
        "keyword_found": "útiles escolares"
    },
    {
        "place_id": "ChIJr6raRLuB05ERh_FYBvS4Kas",
        "nombre": "EL REMATE IMPORTADORA",
        "direccion": "Edificio El Remate Importadora, Av. Doce de Noviembre, Ambato 180150, Ecuador",
        "provincia": "Tungurahua",
        "lat": -1.2394979,
        "lng": -78.6237108,
        "rating": 4.2,
        "website": "http://www.elremate.com.ec/",
        "keyword_found": "útiles escolares"
    },
    {
        "place_id": "ChIJczb03Qpj1JERlrW_vDq4YV0",
        "nombre": "La Nueva Papeleria Sur",
        "direccion": "Carlos Robles, Latacunga, Ecuador",
        "provincia": "Tungurahua",
        "lat": -0.9640566,
        "lng": -78.6116728,
        "rating": 4.7,
        "website": null,
        "keyword_found": "útiles escolares"
    },
    {
        "place_id": "ChIJ811iVq6d05ERq1qrvnGkQ9M",
        "nombre": "Libreria Sandrita",
        "direccion": "J98J+656, Ecuador",
        "provincia": "Tungurahua",
        "lat": -1.3844591,
        "lng": -78.6196011,
        "rating": 5,
        "website": null,
        "keyword_found": "útiles escolares"
    },
    {
        "place_id": "ChIJ0WwABXSp05ERdG6EWbUMaoQ",
        "nombre": "Papeleria",
        "direccion": "8988+V3F, Riobamba, Ecuador",
        "provincia": "Tungurahua",
        "lat": -1.6828184,
        "lng": -78.6348155,
        "rating": 5,
        "website": null,
        "keyword_found": "útiles escolares"
    },
    {
        "place_id": "ChIJCwoxIbuB05ERBTyKt-Ie-lk",
        "nombre": "Mundicell",
        "direccion": "Primera Imprenta, Ambato, Ecuador",
        "provincia": "Tungurahua",
        "lat": -1.2380017,
        "lng": -78.6241331,
        "rating": 4.3,
        "website": "http://www.mundicell.com.ec/",
        "keyword_found": "útiles escolares"
    },
    {
        "place_id": "ChIJ5X1GoiuB05ERmgdduhzv3oA",
        "nombre": "IMPORTADORA JURADO AMBATO by Jurado Group Cía Ltda",
        "direccion": "Q96G+2FF, Av. Doce de Noviembre, Ambato 180201, Ecuador",
        "provincia": "Tungurahua",
        "lat": -1.2399498,
        "lng": -78.62381429999999,
        "rating": null,
        "website": null,
        "keyword_found": "útiles escolares"
    },
    {
        "place_id": "ChIJM6yE8Z1505ER8Z8EIaj4-I0",
        "nombre": "Paleleria Utiles Escolares",
        "direccion": "M7X9+297, PARROQUIA PILAHUIN, Ecuador",
        "provincia": "Tungurahua",
        "lat": -1.302452,
        "lng": -78.73157619999999,
        "rating": 5,
        "website": null,
        "keyword_found": "utiles escolares"
    },
    {
        "place_id": "ChIJ42Da3GR505ERz-qgA8wutmo",
        "nombre": "Mega Smart",
        "direccion": "Garcia Moreno y, P88M+HRP, Sucre, Ambato 180165, Ecuador",
        "provincia": "Tungurahua",
        "lat": -1.2835279,
        "lng": -78.6654155,
        "rating": 5,
        "website": "https://tuffgongo.wixsite.com/megasmart",
        "keyword_found": "utiles escolares"
    },
    {
        "place_id": "ChIJF7sHEkb11JER0cr3cR2L4uQ",
        "nombre": "PAPELERÍA DANIELITA`S - Libreria - Utiles Escolares - Manualidades en Saquisili",
        "direccion": "586M+PQM, Saquisilí, Ecuador",
        "provincia": "Tungurahua",
        "lat": -0.838171,
        "lng": -78.66556899999999,
        "rating": 5,
        "website": null,
        "keyword_found": "utiles escolares"
    },
    {
        "place_id": "ChIJzScXy9Nh1JER3gisCzv8_PI",
        "nombre": "Cyber Market",
        "direccion": "AV General Proaño, 39FP+27V, y, Latacunga 050150, Ecuador",
        "provincia": "Tungurahua",
        "lat": -0.9273885,
        "lng": -78.614324,
        "rating": null,
        "website": "https://cyber-market.jimdosite.com/",
        "keyword_found": "utiles escolares"
    },
    {
        "place_id": "ChIJZQJNDw2p05ER15CDjs8RucE",
        "nombre": "ProEscolar",
        "direccion": "Barón de Carondelet, Riobamba, Ecuador",
        "provincia": "Tungurahua",
        "lat": -1.6792925,
        "lng": -78.6517066,
        "rating": 5,
        "website": null,
        "keyword_found": "utiles escolares"
    },
    {
        "place_id": "ChIJ8TiKl65h1JERunDXKG9CeWg",
        "nombre": "La Rebaja",
        "direccion": "Av. Amazonas, Latacunga 050101, Ecuador",
        "provincia": "Tungurahua",
        "lat": -0.9306304,
        "lng": -78.6187372,
        "rating": 4.3,
        "website": "http://www.larebaja.ec/",
        "keyword_found": "utiles escolares"
    },
    {
        "place_id": "ChIJmQgyR_EH05ERf_Yru61_kXk",
        "nombre": "MultiPlaza Riobamba",
        "direccion": "Av. Lizarzaburu S/N, Riobamba, Ecuador",
        "provincia": "Tungurahua",
        "lat": -1.6567979,
        "lng": -78.6637987,
        "rating": 4.4,
        "website": "https://multiplaza.com.ec/",
        "keyword_found": "utiles escolares"
    },
    {
        "place_id": "ChIJubOsm3CB05ERvlVOz_PTxyE",
        "nombre": "Marceci",
        "direccion": "Q95Q+M2R, Portugal, Ambato 180104, Ecuador",
        "provincia": "Tungurahua",
        "lat": -1.2407529,
        "lng": -78.6124796,
        "rating": 4,
        "website": null,
        "keyword_found": "utiles escolares"
    },
    {
        "place_id": "ChIJaUVIqYSn05ERAOKK1cFCO1g",
        "nombre": "EMPRESA IMPANDI DE IMPORTACIONES S. A.",
        "direccion": "Las Abras, Vía Riobamba Guano Km 3, Riobamba 060107, Ecuador",
        "provincia": "Tungurahua",
        "lat": -1.6391244,
        "lng": -78.640129,
        "rating": 5,
        "website": "https://www.impandi.com/",
        "keyword_found": "utiles escolares"
    },
    {
        "place_id": "ChIJS1X4Upyp05ER4Yf1gRoU1Wo",
        "nombre": "Mega Ventas MCM",
        "direccion": "10 de agosto, y, Riobamba, Ecuador",
        "provincia": "Tungurahua",
        "lat": -1.6722284,
        "lng": -78.6506522,
        "rating": 1,
        "website": "https://megaventasmcm.com/",
        "keyword_found": "utiles escolares"
    },
    {
        "place_id": "ChIJoXITGXiB05ER62prjCnc96A",
        "nombre": "Utiluse",
        "direccion": "Las Aguacollas, Ambato 180163, Ecuador",
        "provincia": "Tungurahua",
        "lat": -1.2352619,
        "lng": -78.6360467,
        "rating": null,
        "website": "https://stevenhernandez069.wixsite.com/utilise",
        "keyword_found": "utiles escolares"
    },
    {
        "place_id": "ChIJTThOTm5h1JERX_paOYAP8WU",
        "nombre": "Fundación de Ayuda Social Shun-Go",
        "direccion": "C. Antonia Vela &, Latacunga, Ecuador",
        "provincia": "Tungurahua",
        "lat": -0.9252865,
        "lng": -78.6220719,
        "rating": null,
        "website": "https://www.facebook.com/FundacionShungoEc/",
        "keyword_found": "utiles escolares"
    },
    {
        "place_id": "ChIJJy-BTkSb05ERzJxab7p5PJ8",
        "nombre": "COMPUCENTRO LIBRERÍA&PAPELERÍA",
        "direccion": "Calle Juan Montalvo y 10 de Agosto, Huambaló, Ecuador",
        "provincia": "Tungurahua",
        "lat": -1.3891142,
        "lng": -78.52975699999999,
        "rating": 5,
        "website": null,
        "keyword_found": "suministros de oficina"
    },
    {
        "place_id": "ChIJa3wmRySB05ERG9XY-HMMlGM",
        "nombre": "Bazar y Papelería La Tranca 3",
        "direccion": "Vargas Torres 07-18 y, Ambato 180103, Ecuador",
        "provincia": "Tungurahua",
        "lat": -1.2357193,
        "lng": -78.62377579999999,
        "rating": 3,
        "website": null,
        "keyword_found": "suministros de oficina"
    },
    {
        "place_id": "ChIJITRJ8Tyo05ERTO9aq-H96BQ",
        "nombre": "Maxxnet - Centro de Atención 1",
        "direccion": "5 de Junio, y, Riobamba 060102, Ecuador",
        "provincia": "Tungurahua",
        "lat": -1.6652142,
        "lng": -78.6416653,
        "rating": 4.1,
        "website": "https://www.maxxnet.ec/",
        "keyword_found": "suministros de oficina"
    },
    {
        "place_id": "ChIJSUKzJpKB05ERjwaN1Fxx1_s",
        "nombre": "Copy M@ster",
        "direccion": "Av. Ruminahui 06-132 y, Ambato 180202, Ecuador",
        "provincia": "Tungurahua",
        "lat": -1.2529287,
        "lng": -78.6289161,
        "rating": 4.4,
        "website": "https://facebook.com/importadoracopymasterambato",
        "keyword_found": "suministros de oficina"
    },
    {
        "place_id": "ChIJB80xhZuD05ERu-4c_IUKYuY",
        "nombre": "LLER&SA DISTRIBUIDORA DE PAPELERIA Y SUMINISTROS DE OFICINA",
        "direccion": "Ambato 180207, Ecuador",
        "provincia": "Tungurahua",
        "lat": -1.3386637,
        "lng": -78.608187,
        "rating": 5,
        "website": null,
        "keyword_found": "suministros de oficina"
    },
    {
        "place_id": "ChIJU1UVVFOA05ERz-1JFZce5ws",
        "nombre": "INTERCOMPU",
        "direccion": "Ambato 180104, Ecuador",
        "provincia": "Tungurahua",
        "lat": -1.225789,
        "lng": -78.61744150000001,
        "rating": 4.3,
        "website": null,
        "keyword_found": "suministros de oficina"
    },
    {
        "place_id": "ChIJDeS9TquD05ER4o9n1j8Mwb4",
        "nombre": "COMPUPAPEL SUMINISTROS PARA PLOTEO PLANOS",
        "direccion": "Av. Cervantes &, Ambato 180103, Ecuador",
        "provincia": "Tungurahua",
        "lat": -1.2744773,
        "lng": -78.63583969999999,
        "rating": null,
        "website": null,
        "keyword_found": "suministros de oficina"
    },
    {
        "place_id": "ChIJYUq398Op05ERGObpVgyvuJg",
        "nombre": "Estampadora Paulino´s Y Personalizados Danny´s",
        "direccion": "Jaime Roldós, y, Riobamba 060103, Ecuador",
        "provincia": "Tungurahua",
        "lat": -1.6590092,
        "lng": -78.64437649999999,
        "rating": 4.7,
        "website": "https://aquiencontre.com/estampadora-riobamba-paulinos/",
        "keyword_found": "suministros de oficina"
    },
    {
        "place_id": "ChIJMZB3KK-B05ERxwrTJz3TkH0",
        "nombre": "Pc Expert",
        "direccion": "Av. Colombia 01-108 Entre Av De Las Americas Y, Chile, Ambato 180150, Ecuador",
        "provincia": "Tungurahua",
        "lat": -1.233442,
        "lng": -78.61789209999999,
        "rating": 4.3,
        "website": "http://www.pcexpert.com.ec/",
        "keyword_found": "suministros de oficina"
    },
    {
        "place_id": "ChIJVSgFYDuo05ERyeeSv2c4sto",
        "nombre": "Libreria los altares",
        "direccion": "Eugenio Espejo &, Riobamba, Ecuador",
        "provincia": "Tungurahua",
        "lat": -1.6669475,
        "lng": -78.6439582,
        "rating": 4.4,
        "website": null,
        "keyword_found": "suministros de oficina"
    },
    {
        "place_id": "ChIJP7EhD7-B05ERCZOomCBlS7w",
        "nombre": "OZALID / PUBLIGRABADOS (Rotulación, Grabados, Señalética, Sellos y Artículos Publicitarios)",
        "direccion": "Perez De Anda 01-242 y, Ambato 180103, Ecuador",
        "provincia": "Tungurahua",
        "lat": -1.2422065,
        "lng": -78.6322519,
        "rating": 4.8,
        "website": "http://www.publigrabados.com/web/",
        "keyword_found": "suministros de oficina"
    },
    {
        "place_id": "ChIJR3cmPo-B05ER6RRjGMRd1Vw",
        "nombre": "Cámaras de seguridad Ambato| ALTA SEGURIDAD | Alarma de seguridad Ambato | Cercos eléctricos Ambato",
        "direccion": "Zopozopangui 0131y, Ambato 180202, Ecuador",
        "provincia": "Tungurahua",
        "lat": -1.2579918,
        "lng": -78.6245218,
        "rating": 5,
        "website": "https://alsegseguridad.com/",
        "keyword_found": "suministros de oficina"
    },
    {
        "place_id": "ChIJy-CLj_uD05ERvz1yRKZzVJk",
        "nombre": "MELAMINATIC EC",
        "direccion": "Carlos Amable Ortiz, y, Ambato 180210, Ecuador",
        "provincia": "Tungurahua",
        "lat": -1.2769991,
        "lng": -78.6157296,
        "rating": null,
        "website": "https://www.facebook.com/profile.php?id=61565034872986",
        "keyword_found": "suministros de oficina"
    },
    {
        "place_id": "ChIJKfGCveKB05ER5X3A7V61x7Q",
        "nombre": "Econoprint S.A. - Ambato Norte",
        "direccion": "Av. Luis Pasteur, edificio Buena Vista, y, Ambato 180104, Ecuador",
        "provincia": "Tungurahua",
        "lat": -1.2310486,
        "lng": -78.61670649999999,
        "rating": 4.9,
        "website": "https://tiendaeconoprint.com/",
        "keyword_found": "suministros de oficina"
    },
    {
        "place_id": "ChIJ-WBaSSKC05ER81Tt8xFxH8w",
        "nombre": "OFFICE AMERICA SUM. OFIC. Y COMPU.",
        "direccion": "Marcos Montalvo, Ambato 180103, Ecuador",
        "provincia": "Tungurahua",
        "lat": -1.2699581,
        "lng": -78.63167680000001,
        "rating": 4.6,
        "website": null,
        "keyword_found": "suministros de oficina"
    },
    {
        "place_id": "ChIJ9VQXnCyB05ERTf-J8OOyx-Y",
        "nombre": "Tecnomundo Importaciones",
        "direccion": "Benalcazar 0257 y, Ambato 180101, Ecuador",
        "provincia": "Tungurahua",
        "lat": -1.2472347,
        "lng": -78.6327337,
        "rating": 5,
        "website": null,
        "keyword_found": "suministros de oficina"
    },
    {
        "place_id": "ChIJQ-Ikxb2B05ERer4TIvQlQqc",
        "nombre": "Copixerox",
        "direccion": "Juan Montalvo 05-30, Ambato 180101, Ecuador",
        "provincia": "Tungurahua",
        "lat": -1.2432258,
        "lng": -78.6277782,
        "rating": 5,
        "website": null,
        "keyword_found": "suministros de oficina"
    },
    {
        "place_id": "ChIJxfxfgTCC05ER93hWf6QT2eA",
        "nombre": "Serigrafía Buestan - Sucursal Ambato #1",
        "direccion": "P9FG+JXR, Julio Jaramillo Laurido, Ambato 180210, Ecuador",
        "provincia": "Tungurahua",
        "lat": -1.275882,
        "lng": -78.62259519999999,
        "rating": 4.2,
        "website": "http://serigrafiabuestan.com/",
        "keyword_found": "suministros de oficina"
    },
    {
        "place_id": "ChIJsVhZQMCp05ER1sGkEQR4q-s",
        "nombre": "AGROSOLVER",
        "direccion": "Av. Antonio José de Sucre 1, Riobamba 060107, Ecuador",
        "provincia": "Tungurahua",
        "lat": -1.6456311,
        "lng": -78.6412619,
        "rating": null,
        "website": null,
        "keyword_found": "suministros de oficina"
    },
    {
        "place_id": "ChIJD0PxIruB05ER1IMr4yPq_OI",
        "nombre": "ALMACEN GEOVANNA",
        "direccion": "09-28 y, Primera Imprenta, Ambato 170308, Ecuador",
        "provincia": "Tungurahua",
        "lat": -1.2386908,
        "lng": -78.6247267,
        "rating": 5,
        "website": "https://omysonline.com/almac%C3%A9n-geovanna",
        "keyword_found": "suministros de oficina"
    },
    {
        "place_id": "ChIJB02iFSCB05ERi_htsRkkQ6g",
        "nombre": "La Tienda Gráfica",
        "direccion": "Darquea 0551, Ambato, Ecuador",
        "provincia": "Tungurahua",
        "lat": -1.2369146,
        "lng": -78.6235493,
        "rating": 5,
        "website": null,
        "keyword_found": "suministros de oficina"
    },
    {
        "place_id": "ChIJsW8Unf-p05EREkKOU5GGYIw",
        "nombre": "Astra Muebles Riobamba - Mobiliario - Sillas de oficina.",
        "direccion": "Av. Antonio José de Sucre, y, Riobamba 080603, Ecuador",
        "provincia": "Tungurahua",
        "lat": -1.663275,
        "lng": -78.6430864,
        "rating": 5,
        "website": null,
        "keyword_found": "suministros de oficina"
    },
    {
        "place_id": "ChIJzaaJeaJ405ERdaeq7aHv9_Y",
        "nombre": "Papeleria Y Bazar ORIGAMI",
        "direccion": "neptali sancho y via a, P88P+X37, Guaranda, Ecuador",
        "provincia": "Tungurahua",
        "lat": -1.2825779,
        "lng": -78.6648302,
        "rating": null,
        "website": null,
        "keyword_found": "suministros de oficina"
    },
    {
        "place_id": "ChIJQR-5ElSA05ERJ0QWTasY9QE",
        "nombre": "AINIV - Automatización Industrial y Compresores en Ambato",
        "direccion": "Av. 13 de Diciembre, Ambato 180109, Ecuador",
        "provincia": "Tungurahua",
        "lat": -1.222418,
        "lng": -78.6163895,
        "rating": 4.3,
        "website": "http://www.ainiv.com.ec/",
        "keyword_found": "suministros de oficina"
    },
    {
        "place_id": "ChIJdztPTraB05ER5xSDlPprmNA",
        "nombre": "Polipapel",
        "direccion": "Av. Manuela Saenz, CC Paseo Shopping, Y, Ambato 180150, Ecuador",
        "provincia": "Tungurahua",
        "lat": -1.2636798,
        "lng": -78.6388377,
        "rating": null,
        "website": "https://www.polipapel.com/",
        "keyword_found": "suministros de oficina"
    },
    {
        "place_id": "ChIJXzaEzRCB05ERS8Wl6nT96qE",
        "nombre": "Polipapel",
        "direccion": "Av. De las Americas, C.C MULTIPLAZA, y, Ambato 180104, Ecuador",
        "provincia": "Tungurahua",
        "lat": -1.233351,
        "lng": -78.618603,
        "rating": null,
        "website": "https://www.polipapel.com/",
        "keyword_found": "suministros de oficina"
    },
    {
        "place_id": "ChIJqcHjbAmB05ERrZmshdRZBNg",
        "nombre": "Nova Stitch",
        "direccion": "Darque 01-115 y, Unidad Nacional, Ambato 180105, Ecuador",
        "provincia": "Tungurahua",
        "lat": -1.2354374,
        "lng": -78.62186779999999,
        "rating": 5,
        "website": null,
        "keyword_found": "suministros de oficina"
    },
    {
        "place_id": "ChIJrWq011an05ERBA9hF0tjYdA",
        "nombre": "Campus Store EC",
        "direccion": "Via a, Guano, Ecuador",
        "provincia": "Tungurahua",
        "lat": -1.6376903,
        "lng": -78.6395489,
        "rating": null,
        "website": null,
        "keyword_found": "suministros de oficina"
    },
    {
        "place_id": "ChIJrbdjYweD05ERQ1sDrryMeio",
        "nombre": "SOLUTECNIKA - Sika Ambato",
        "direccion": "Cueva Celi, Barrio Solis, y, Ambato 180103, Ecuador",
        "provincia": "Tungurahua",
        "lat": -1.2779595,
        "lng": -78.6240782,
        "rating": 4.8,
        "website": null,
        "keyword_found": "suministros de oficina"
    },
    {
        "place_id": "ChIJ-0cz-fyB05ERTZhPwWjDJW4",
        "nombre": "Distribuciones Disvalbo Cia. Ltda.",
        "direccion": "180150, Ambato 180202, Ecuador",
        "provincia": "Tungurahua",
        "lat": -1.2579256,
        "lng": -78.6265239,
        "rating": 3,
        "website": "https://www.disvalbo.com/",
        "keyword_found": "suministros de oficina"
    },
    {
        "place_id": "ChIJLc6mjl-B05ERbrsqse0mxFo",
        "nombre": "A.M Distribuciones",
        "direccion": "Av Cevallos, y, Ambato 180101, Ecuador",
        "provincia": "Tungurahua",
        "lat": -1.2470119,
        "lng": -78.6310469,
        "rating": null,
        "website": "https://sites.google.com/view/novomedina/inicio",
        "keyword_found": "suministros de oficina"
    },
    {
        "place_id": "ChIJs1oEMgCB05ERY-h7j-5z8aI",
        "nombre": "Cooperativa de Ahorro Y Credito Union Familiar",
        "direccion": "Av. 22 de Enero &, Ambato, Ecuador",
        "provincia": "Tungurahua",
        "lat": -1.21842,
        "lng": -78.6110112,
        "rating": 4.5,
        "website": null,
        "keyword_found": "suministros de oficina"
    },
    {
        "place_id": "ChIJi144cRSB05ERtXKkxilVSow",
        "nombre": "Suministros VJ",
        "direccion": "Ambato 180201, Ecuador",
        "provincia": "Tungurahua",
        "lat": -1.241092,
        "lng": -78.6242956,
        "rating": null,
        "website": "https://bookjuanes.my.canva.site/catalogosuministrosvj",
        "keyword_found": "suministros de oficina"
    },
    {
        "place_id": "ChIJgXnFfOuA05ERzZaTBXzGUgc",
        "nombre": "INGENIUSLAB-EC Soluciones Informáticas",
        "direccion": "Av. INDOAMERICA KM. 7 vía a Quito A 150m de la ESFORSE - Frente al Ingreso a MACASTO, Ecuador",
        "provincia": "Tungurahua",
        "lat": -1.2117263,
        "lng": -78.5932653,
        "rating": 4.1,
        "website": "http://www.ingeniuslab-ec.com/",
        "keyword_found": "suministros de oficina"
    },
    {
        "place_id": "ChIJB06hVLmB05ERyiuExW0BdGM",
        "nombre": "Garcia Design",
        "direccion": "Darquea 180109, Ambato 180109, Ecuador",
        "provincia": "Tungurahua",
        "lat": -1.2391941,
        "lng": -78.6259091,
        "rating": 4.4,
        "website": null,
        "keyword_found": "suministros de oficina"
    },